UNITID,OPEID,OPEID6,INSTNM,CITY,STABBR,ZIP,LATITUDE,LONGITUDE,ACCREDAGENCY,AVG_FAMILY_INCOME,MN_EARN_WNE_P6,MD_EARN_WNE_P6,ADM_RATE_ALL,AVG_NET_PRICE,UGDS_WHITE,UGDS_BLACK,UGDS_HISP,UGDS_ASIAN,UGDS_AIAN,UGDS_NHPI,UGDS_2MOR,UGDS_NRA,UGDS_UNKN,UGDS_MEN,UGDS_WOMEN,ICLEVEL,HIGHDEG,C150_L4,C150_4
100654,100200,1002,Alabama A & M University,Normal,AL,35762,34.783368,-86.568502,Southern Association of Colleges and Schools Commission on Colleges,32103.62,28400,28704,0.8965,15529,0.0159,0.9022,0.0116,0.0012,0.0028,0.0008,0.0143,0.0073,0.044,0.3978,0.6022,1,4,NULL,0.2866
100663,105200,1052,University of Alabama at Birmingham,Birmingham,AL,35294-0110,33.505697,-86.799345,Southern Association of Colleges and Schools Commission on Colleges,57554.38,39400,39271,0.806,16530,0.5496,0.2401,0.061,0.0704,0.0024,0.0004,0.0469,0.0232,0.0059,0.3816,0.6184,1,4,NULL,0.6117
100690,2503400,25034,Amridge University,Montgomery,AL,36117-3553,32.362609,-86.17401,Southern Association of Colleges and Schools Commission on Colleges,48833.33,35400,32939,NULL,17618,0.255,0.6913,0.0268,0.0034,0,0,0,0,0.0235,0.2886,0.7114,1,4,NULL,0.25
100706,105500,1055,University of Alabama in Huntsville,Huntsville,AL,35899,34.724557,-86.640449,Southern Association of Colleges and Schools Commission on Colleges,65369.89,40300,47533,0.7711,17208,0.7173,0.0907,0.0599,0.0354,0.0083,0.001,0.0431,0.019,0.0252,0.5891,0.4109,1,4,NULL,0.5714
100724,100500,1005,Alabama State University,Montgomery,AL,36104-0271,32.364317,-86.295677,Southern Association of Colleges and Schools Commission on Colleges,27910.43,24400,25949,0.9888,19534,0.0167,0.9265,0.013,0.0019,0.0017,0.0017,0.0119,0.0155,0.0111,0.3605,0.6395,1,4,NULL,0.3177
100751,105100,1051,The University of Alabama,Tuscaloosa,AL,35487-0100,33.211875,-87.545978,Southern Association of Colleges and Schools Commission on Colleges,61307.39,42400,44485,0.8039,20917,0.7695,0.1024,0.0512,0.0131,0.0033,0.0008,0.0359,0.0187,0.0051,0.4417,0.5583,1,4,NULL,0.7214
100760,100700,1007,Central Alabama Community College,Alexander City,AL,35010,32.92478,-85.945266,Southern Association of Colleges and Schools Commission on Colleges,32456.42,25900,25657,NULL,3269,0.7284,0.1932,0.0141,0.006,0.002,0.002,0.0332,0.003,0.0181,0.3954,0.6046,2,2,0.192,NULL
100812,100800,1008,Athens State University,Athens,AL,35611,34.806793,-86.964698,Southern Association of Colleges and Schools Commission on Colleges,0,36200,38536,NULL,0,0.7596,0.1305,0.0369,0.0065,0.0126,0.0011,0.0247,0.0008,0.0274,0.3016,0.6984,1,4,NULL,NULL
100830,831000,8310,Auburn University at Montgomery,Montgomery,AL,36117-3596,32.36736,-86.177544,Southern Association of Colleges and Schools Commission on Colleges,42863.42,32100,33326,0.9555,13678,0.4213,0.4473,0.0114,0.0242,0.0044,0.0007,0.0353,0.0449,0.0105,0.3367,0.6633,1,4,NULL,0.304
100858,100900,1009,Auburn University,Auburn,AL,36849,32.599378,-85.488258,Southern Association of Colleges and Schools Commission on Colleges,81768.16,43100,49695,0.8507,24018,0.8101,0.0465,0.0355,0.0238,0.003,0.0006,0.0264,0.0514,0.0027,0.5135,0.4865,1,4,NULL,0.787
100937,101200,1012,Birmingham-Southern College,Birmingham,AL,35254,33.513774,-86.850552,Southern Association of Colleges and Schools Commission on Colleges,68324.18,36700,42523,0.6045,19808,0.7653,0.1435,0.0452,0.0204,0.0035,0,0.0089,0.0124,0.0009,0.4632,0.5368,1,3,NULL,0.7094
101028,1218200,12182,Chattahoochee Valley Community College,Phenix City,AL,36869,32.42391,-85.031485,Southern Association of Colleges and Schools Commission on Colleges,26213.9,26000,26888,NULL,2652,0.4049,0.4057,0.0617,0.0101,0.0008,0,0.0516,0.0034,0.0617,0.3187,0.6813,2,2,0.2246,NULL
101116,1303906,13039,South University-Montgomery,Montgomery,AL,36116,32.342684,-86.216488,Southern Association of Colleges and Schools Commission on Colleges,30791.67,32500,26001,NULL,20518,0.3114,0.6505,0.0173,0,0,0.0035,0.0035,0,0.0138,0.1557,0.8443,1,4,NULL,0.1429
101143,101500,1015,Enterprise State Community College,Enterprise,AL,36330-1300,31.297496,-85.836956,Southern Association of Colleges and Schools Commission on Colleges,36715.12,33700,32481,NULL,4142,0.5966,0.2124,0.0713,0.0054,0.0077,0.0023,0.0514,0.0069,0.046,0.536,0.464,2,2,0.2582,NULL
101161,106000,1060,Coastal Alabama Community College,Bay Minette,AL,36507-2698,30.851343,-87.778193,Southern Association of Colleges and Schools Commission on Colleges,36062.27,26600,26501,NULL,8924,0.6506,0.2118,0.0361,0.0118,0.0154,0.0002,0.0359,0.0043,0.034,0.3731,0.6269,2,2,0.1887,NULL
101189,100300,1003,Faulkner University,Montgomery,AL,36109-3390,32.384181,-86.21641,Southern Association of Colleges and Schools Commission on Colleges,53955.19,33400,32902,0.7576,20500,0.4564,0.4215,0.03,0.0076,0.0071,0.0044,0.0273,0.0202,0.0256,0.41,0.59,1,4,NULL,0.2711
101240,101700,1017,Gadsden State Community College,Gadsden,AL,35903,33.994001,-85.991438,Southern Association of Colleges and Schools Commission on Colleges,24994.34,24300,24906,NULL,4538,0.6957,0.1808,0.0549,0.0037,0.0029,0.0009,0.0318,0.014,0.0154,0.3687,0.6313,2,2,0.2736,NULL
101277,4187200,41872,New Beginning College of Cosmetology,Albertville,AL,35951,34.27871,-86.196931,National Accrediting Commission of Career Arts and Sciences,27344.44,NULL,16224,NULL,12560,0.8953,0.0116,0.093,0,0,0,0,0,0,0.0116,0.9884,3,1,0.8261,NULL
101286,101800,1018,George C Wallace Community College-Dothan,Dothan,AL,36303-9234,31.315274,-85.465836,Southern Association of Colleges and Schools Commission on Colleges,25332.94,24900,24807,NULL,1384,0.5831,0.2959,0.0458,0.01,0.003,0.0003,0.0284,0.005,0.0284,0.3046,0.6954,2,2,0.2884,NULL
101295,787100,7871,George C Wallace State Community College-Hanceville,Hanceville,AL,35077-2000,34.072439,-86.781935,Southern Association of Colleges and Schools Commission on Colleges,27596.01,29200,30399,NULL,6685,0.8012,0.0674,0.0712,0.0145,0.0071,0.0012,0.0237,0.0055,0.0081,0.3268,0.6732,2,2,0.4516,NULL
101301,569900,5699,George C Wallace State Community College-Selma,Selma,AL,36702-2808,32.445917,-87.013294,Southern Association of Colleges and Schools Commission on Colleges,19709.6,23000,23715,NULL,3928,0.1845,0.7729,0.0076,0.0022,0.0011,0,0.0218,0.0055,0.0044,0.298,0.702,2,2,0.3383,NULL
101365,962107,9621,Herzing University-Birmingham,Birmingham,AL,35209,33.468466,-86.832465,Higher Learning Commission,21409.09,30100,30259,0.9201,25741,0.2761,0.6373,0.0294,0.0082,0.0016,0.0033,0.0163,0,0.0278,0.2075,0.7925,1,4,NULL,0.2222
101435,101900,1019,Huntingdon College,Montgomery,AL,36106-2148,32.351034,-86.284366,Southern Association of Colleges and Schools Commission on Colleges,67012.44,34600,37025,0.5439,21632,0.6696,0.1832,0.0654,0.0087,0.0087,0,0.0393,0,0.0251,0.5049,0.4951,1,3,NULL,0.4185
101453,2199700,21997,Heritage Christian University,Florence,AL,35630-9977,34.856153,-87.663051,Association for Bibical Higher Educaiton,0,PrivacySuppressed,32742,0.6667,0,0.9,0.0429,0.0286,0,0,0,0.0143,0,0.0143,0.9571,0.0429,1,4,NULL,0.1429
101462,526000,5260,J. F. Drake State Community and Technical College,Huntsville,AL,35811,34.771858,-86.572885,Southern Association of Colleges and Schools Commission on Colleges,18459.68,21500,21986,NULL,5740,0.263,0.6013,0.0419,0.0084,0.0067,0,0.0586,0.0168,0.0034,0.3953,0.6047,2,2,0.0667,NULL
101471,3002500,30025,J F Ingram State Technical College,Deatsville,AL,36022,32.582312,-86.392369,Council on Occupational Education,15000,NULL,NULL,NULL,2902,0.3409,0.6165,0.0075,0.0025,0.0075,0,0.0175,0.005,0.0025,0.787,0.213,2,1,0.2079,NULL
101480,102000,1020,Jacksonville State University,Jacksonville,AL,36265,33.822938,-85.765321,Southern Association of Colleges and Schools Commission on Colleges,50961.67,31800,34081,0.6369,17523,0.6681,0.22,0.0047,0.0075,0.0041,0.0006,0,0.0152,0.0797,0.3995,0.6005,1,4,NULL,0.4551
101505,102200,1022,Jefferson State Community College,Birmingham,AL,35215-3098,33.652535,-86.707233,Southern Association of Colleges and Schools Commission on Colleges,39011.97,29400,30686,NULL,9564,0.6179,0.2231,0.0681,0.0169,0.0034,0,0.029,0.02,0.0216,0.3512,0.6488,2,2,0.1577,NULL
101514,101300,1013,John C Calhoun State Community College,Tanner,AL,35671,34.645844,-86.949674,Southern Association of Colleges and Schools Commission on Colleges,42114.93,27000,28285,NULL,6267,0.6446,0.154,0.0752,0.0209,0.014,0.0015,0.0608,0.0086,0.0202,0.425,0.575,2,2,0.2854,NULL
101541,102300,1023,Judson College,Marion,AL,36756,32.629253,-87.315206,NULL,54443.18,26300,29785,0.5648,16976,0.7626,0.1872,0.0091,0.0046,0.0228,0,0.0046,0,0.0091,0.0274,0.9726,1,3,NULL,0.4756
101569,105900,1059,Lawson State Community College,Birmingham,AL,35221-1717,33.450814,-86.888844,Southern Association of Colleges and Schools Commission on Colleges,23944.55,22700,23621,NULL,7855,0.1371,0.7906,0.0302,0.0038,0.0019,0.0004,0.0272,0.0057,0.0031,0.3426,0.6574,2,2,0.2126,NULL
101587,102400,1024,University of West Alabama,Livingston,AL,35470,32.588132,-88.186329,Southern Association of Colleges and Schools Commission on Colleges,50545.92,29700,34478,0.9313,16747,0.4384,0.4072,0.0218,0.0027,0.0098,0.0009,0.02,0.0303,0.069,0.3413,0.6587,1,4,NULL,0.4011
101602,898800,8988,Lurleen B Wallace Community College,Andalusia,AL,36420-1224,31.322947,-86.452262,Southern Association of Colleges and Schools Commission on Colleges,26789.96,25500,23629,NULL,6997,0.6494,0.2294,0.0241,0.0037,0.0065,0.0009,0.0287,0.0019,0.0555,0.3534,0.6466,2,2,0.3325,NULL
101648,102600,1026,Marion Military Institute,Marion,AL,36756-3207,32.623734,-87.322041,Southern Association of Colleges and Schools Commission on Colleges,53435.06,33600,44567,0.575,11190,0.6525,0.21,0.0175,0.05,0.015,0.0025,0.0525,0,0,0.7125,0.2875,2,2,0.4073,NULL
101675,102800,1028,Miles College,Fairfield,AL,35064-2621,33.482442,-86.908751,Southern Association of Colleges and Schools Commission on Colleges,26413.19,23100,25928,NULL,14912,0.0348,0.9332,0.0118,0,0.0007,0,0.0195,0,0,0.4687,0.5313,1,3,NULL,0.2351
101693,102900,1029,University of Mobile,Mobile,AL,36613-2842,30.793247,-88.128934,Southern Association of Colleges and Schools Commission on Colleges,62838.16,32700,33075,0.6657,23416,0.6572,0.1718,0.0077,0.018,0.0241,0.0052,0.0258,0.0378,0.0524,0.3497,0.6503,1,4,NULL,0.489
101709,100400,1004,University of Montevallo,Montevallo,AL,35115-6000,33.10625,-86.865099,Southern Association of Colleges and Schools Commission on Colleges,56857.4,28000,32169,0.6052,18584,0.6706,0.1683,0.0572,0.0082,0.0037,0.0027,0.0403,0.0316,0.0174,0.3573,0.6427,1,4,NULL,0.5415
101736,569700,5697,Northwest-Shoals Community College,Muscle Shoals,AL,35661,34.739788,-87.678089,Southern Association of Colleges and Schools Commission on Colleges,35957.49,25600,25830,NULL,6166,0.7307,0.1137,0.0827,0.0082,0.0069,0.0004,0.0383,0.0116,0.0073,0.3542,0.6458,2,2,0.2452,NULL
101879,101600,1016,University of North Alabama,Florence,AL,35632-0001,34.806738,-87.681361,Southern Association of Colleges and Schools Commission on Colleges,58206.12,32100,35791,0.8266,13699,0.7418,0.1292,0.0392,0.0155,0.0059,0.0006,0.034,0.0251,0.0087,0.3774,0.6226,1,4,NULL,0.4995
101897,103100,1031,Northeast Alabama Community College,Rainsville,AL,35986,34.545471,-85.911664,Southern Association of Colleges and Schools Commission on Colleges,32835.84,26200,27408,NULL,3759,0.718,0.0219,0.1267,0.0055,0.0158,0.0012,0.0463,0.056,0.0085,0.3496,0.6504,2,2,0.4698,NULL
101912,103300,1033,Oakwood University,Huntsville,AL,35896,34.756344,-86.652705,Southern Association of Colleges and Schools Commission on Colleges,58766.3,25800,28749,0.8881,26953,0.0061,0.8348,0.0598,0.003,0.0098,0,0.0008,0.0697,0.0159,0.4152,0.5848,1,4,NULL,0.5
101994,569200,5692,Reid State Technical College,Evergreen,AL,36401,31.460265,-86.964797,Council on Occupational Education,22366.67,25300,23349,NULL,1515,0.3726,0.5613,0.0094,0,0.0094,0,0.0425,0,0.0047,0.3726,0.6274,2,2,0.2909,NULL
102030,103000,1030,Bishop State Community College,Mobile,AL,36603-5898,30.693972,-88.056982,Southern Association of Colleges and Schools Commission on Colleges,19845.88,23500,22171,NULL,4352,0.2408,0.6253,0.0209,0.0203,0.0043,0,0.0319,0.0221,0.0344,0.3243,0.6757,2,2,0.2056,NULL
102049,103600,1036,Samford University,Birmingham,AL,35229-2240,33.464128,-86.791799,Southern Association of Colleges and Schools Commission on Colleges,82820.65,45200,45778,0.8399,30072,0.8575,0.056,0.0383,0.0104,0.002,0,0.0243,0.0109,0.0006,0.3219,0.6781,1,4,NULL,0.772
102067,569100,5691,Shelton State Community College,Tuscaloosa,AL,35405-8522,33.120531,-87.56148,Southern Association of Colleges and Schools Commission on Colleges,24759.22,25900,27172,NULL,8010,0.5541,0.3594,0.0296,0.0067,0.0052,0.0003,0.0293,0.0055,0.0098,0.4227,0.5773,2,2,0.1511,NULL
102076,103800,1038,Snead State Community College,Boaz,AL,35957-0734,34.201495,-86.169897,Southern Association of Colleges and Schools Commission on Colleges,27655.71,25700,28272,NULL,5746,0.6709,0.0779,0.1766,0.0081,0.0054,0.002,0.0363,0.004,0.0188,0.3633,0.6367,2,2,0.4954,NULL
102094,105700,1057,University of South Alabama,Mobile,AL,36688-0002,30.696033,-88.178711,Southern Association of Colleges and Schools Commission on Colleges,57110.16,35100,36829,0.7303,16826,0.605,0.2155,0.0437,0.0346,0.0073,0.0013,0.0413,0.0165,0.0348,0.393,0.607,1,4,NULL,0.4491
102234,104100,1041,Spring Hill College,Mobile,AL,36608-1791,30.694751,-88.138199,Southern Association of Colleges and Schools Commission on Colleges,39294.34,34800,37808,0.5416,22560,0.6531,0.1437,0.0614,0.0161,0.0066,0.0019,0.018,0.0491,0.0501,0.3913,0.6087,1,4,NULL,0.5691
102270,104400,1044,Stillman College,Tuscaloosa,AL,35401,33.200006,-87.585278,Southern Association of Colleges and Schools Commission on Colleges,28676.74,24900,27831,0.5553,19846,0.0458,0.9485,0.0057,0,0,0,0,0,0,0.4649,0.5351,1,3,NULL,0.2151
102298,104600,1046,Talladega College,Talladega,AL,35160,33.433472,-86.112704,Southern Association of Colleges and Schools Commission on Colleges,17298.39,24200,23545,NULL,19863,0.0289,0.8993,0.0228,0.0009,0.0035,0.0018,0.0193,0.0201,0.0035,0.4965,0.5035,1,4,NULL,0.3014
102313,573400,5734,H Councill Trenholm State Community College,Montgomery,AL,36108-3199,32.350109,-86.343057,Southern Association of Colleges and Schools Commission on Colleges,20406.98,24400,24217,NULL,4911,0.2315,0.6854,0.0352,0.0082,0.003,0.0007,0.0135,0.0052,0.0172,0.3798,0.6202,2,2,0.1834,NULL
102368,104700,1047,Troy University,Troy,AL,36082-0001,31.800672,-85.957094,Southern Association of Colleges and Schools Commission on Colleges,19654.85,34300,32760,0.9243,14992,0.525,0.3196,0.0438,0.0081,0.0033,0.0013,0.0377,0.022,0.0394,0.3677,0.6323,1,4,NULL,0.5017
102377,105000,1050,Tuskegee University,Tuskegee,AL,36088-1920,32.4309,-85.708492,Southern Association of Colleges and Schools Commission on Colleges,37146.34,34500,35093,0.6113,36528,0.0044,0.9053,0.0154,0.0053,0.0022,0.007,0,0,0.0605,0.3614,0.6386,1,4,NULL,0.5189
102395,2170600,21706,United States Sports Academy,Daphne,AL,36526-7055,30.639329,-87.91163,Southern Association of Colleges and Schools Commission on Colleges,0,35700,40709,NULL,0,0.5538,0.1846,0.1231,0.0077,0,0,0.0846,0,0.0462,0.8,0.2,1,4,NULL,NULL
102429,573300,5733,Bevill State Community College,Jasper,AL,35501,33.836929,-87.266406,Southern Association of Colleges and Schools Commission on Colleges,27749.28,26600,26570,NULL,8600,0.7677,0.1543,0.0287,0.0031,0.0004,0,0.0278,0,0.0179,0.3695,0.6305,2,2,0.3121,NULL
102553,1146200,11462,University of Alaska Anchorage,Anchorage,AK,99508,61.190163,-149.82619,Northwest Commission on Colleges and Universities,51032.59,41500,37355,0.7683,11782,0.5074,0.0367,0.0965,0.0855,0.0503,0.0383,0.1215,0.0191,0.0447,0.4031,0.5969,1,4,NULL,0.3012
102580,884300,8843,Alaska Bible College,Palmer,AK,99645,61.598553,-149.111972,Association for Bibical Higher Educaiton,15000,NULL,NULL,NULL,15630,0.8889,0.0278,0.0278,0.0278,0.0278,0,0,0,0,0.6667,0.3333,1,3,NULL,0.625
102614,106300,1063,University of Alaska Fairbanks,Fairbanks,AK,99775,64.85756,-147.823146,Northwest Commission on Colleges and Universities,69531.58,36500,35456,0.6701,10510,0.5203,0.0387,0.0838,0.0228,0.1402,0.0101,0.108,0.0139,0.0622,0.4172,0.5828,1,4,NULL,0.387
102632,106500,1065,University of Alaska Southeast,Juneau,AK,99801-8697,58.384846,-134.638255,Northwest Commission on Colleges and Universities,71918.92,35200,35319,0.6352,10292,0.5503,0.0038,0.0865,0.031,0.1195,0.0254,0.1232,0.0047,0.0555,0.3396,0.6604,1,4,NULL,0.1753
102669,106100,1061,Alaska Pacific University,Anchorage,AK,99508,61.190968,-149.804168,Northwest Commission on Colleges and Universities,54675.68,37500,33401,0.9065,20651,0.3054,0.0235,0.1007,0.0201,0.2651,0.0067,0.151,0,0.1275,0.2315,0.7685,1,4,NULL,0.5556
102711,3160300,31603,Alaska Vocational Technical Center,Seward,AK,99664-0889,60.110626,-149.444487,Council on Occupational Education,19000,43200,42891,NULL,7578,0.5838,0.0054,0.0324,0.0162,0.0811,0.0054,0.0432,0.0108,0.2216,0.7297,0.2703,3,1,0.9213,NULL
102845,2576900,25769,Charter College,Vancouver,WA,98683-7575,45.617798,-122.494766,Accrediting Bureau of Health Education Schools,35297.33,30500,29515,NULL,24629,0.3132,0.0415,0.1972,0.0189,0.083,0.0486,0.1363,0.0005,0.1608,0.2217,0.7783,1,3,NULL,0.5169
103501,2541000,25410,Alaska Career College,Anchorage,AK,99507-1033,61.181443,-149.856954,Accrediting Commission of Career Schools and Colleges,21778.63,27200,29941,NULL,15191,0.2694,0.1044,0.0995,0.2112,0.1675,0.0316,0.0898,0,0.0267,0.1238,0.8762,2,2,0.7938,NULL
103741,966403,9664,Empire Beauty School-Tucson,Tucson,AZ,85716,32.235657,-110.927187,National Accrediting Commission of Career Arts and Sciences,23616.07,20500,22746,NULL,15667,0.2281,0.0877,0.5789,0,0.0351,0,0.0439,0,0.0263,0.0351,0.9649,3,1,0.5789,NULL
103893,2100600,21006,Carrington College-Phoenix North,Phoenix,AZ,85051-4063,33.565758,-112.104601,Western Association of Schools and Colleges Accrediting Commission for Community and Junior Colleges,27955.75,28800,30410,NULL,22500,0.2688,0.1116,0.4645,0.0385,0.0436,0.0041,0.0243,0.0081,0.0365,0.1531,0.8469,2,2,0.6284,NULL
103909,2100611,21006,Carrington College-Mesa,Mesa,AZ,85210-5005,33.39248,-111.853218,Western Association of Schools and Colleges Accrediting Commission for Community and Junior Colleges,26750,28800,30410,NULL,37809,0.3475,0.0814,0.3814,0.0339,0.0763,0.0119,0.0356,0.0068,0.0254,0.1322,0.8678,2,2,0.6225,NULL
103927,2100607,21006,Carrington College-Tucson,Tucson,AZ,85745-2974,32.224391,-110.983056,Western Association of Schools and Colleges Accrediting Commission for Community and Junior Colleges,24916.67,28800,30410,NULL,26891,0.2486,0.0723,0.6098,0.0231,0.0058,0.0029,0.0231,0.0029,0.0116,0.1416,0.8584,2,2,0.5597,NULL
103954,886400,8864,Arizona Academy of Beauty,Tucson,AZ,85712,32.237253,-110.872305,National Accrediting Commission of Career Arts and Sciences,23000,PrivacySuppressed,16808,NULL,6637,0.3462,0.0769,0.4423,0.0192,0.0192,0,0.0962,0,0,0.0577,0.9423,3,1,0.6,NULL
103963,2306807,23068,Miller-Motte College-Arizona Automotive Institute,Glendale,AZ,85301-3579,33.537249,-112.157344,Accrediting Commission of Career Schools and Colleges,24713.71,25200,24668,NULL,32829,0.3342,0.1087,0.3533,0.0082,0.1196,0.0054,0.0489,0,0.0217,0.8913,0.1087,3,1,0.5617,NULL
104090,2218800,22188,Brookline College-Phoenix,Phoenix,AZ,85021,33.566102,-112.112473,Accrediting Bureau of Health Education Schools,19937.5,21400,23796,NULL,30747,0.2826,0.1423,0.2886,0.0463,0.0721,0.0013,0.0271,0.0007,0.139,0.1291,0.8709,1,4,NULL,0.5031
104151,108100,1081,Arizona State University Campus Immersion,Tempe,AZ,85287,33.417721,-111.934383,Higher Learning Commission,49200.34,42200,46621,0.8688,13107,0.4694,0.0432,0.2641,0.0802,0.0124,0.0019,0.0492,0.065,0.0145,0.5028,0.4972,1,4,NULL,0.6601
104160,107100,1071,Arizona Western College,Yuma,AZ,85365-8834,32.689306,-114.495968,Higher Learning Commission,26700.93,25600,27382,NULL,10023,0.1374,0.013,0.7657,0.0068,0.0087,0.0015,0.0162,0.008,0.0427,0.389,0.611,2,2,0.2396,NULL
104179,108300,1083,University of Arizona,Tucson,AZ,85721-0066,32.232672,-110.950815,Higher Learning Commission,55203.19,41800,43784,0.8513,13358,0.4884,0.0392,0.2877,0.0514,0.012,0.002,0.0504,0.0477,0.0212,0.4497,0.5503,1,4,NULL,0.6489
104346,728300,7283,Central Arizona College,Coolidge,AZ,85128-9030,32.957092,-111.652501,Higher Learning Commission,37567.94,28300,30853,NULL,5804,0.3897,0.0595,0.3711,0.0193,0.0419,0.003,0.0482,0.0118,0.0555,0.3518,0.6482,2,2,0.1632,NULL
104391,2280500,22805,Charles of Italy Beauty College,Lake Havasu City,AZ,86403,34.477485,-114.332686,National Accrediting Commission of Career Arts and Sciences,29708.33,17900,18456,NULL,9851,0.5577,0.0192,0.2885,0.0577,0.0577,0.0192,0,0,0,0.0385,0.9615,3,1,0.6389,NULL
104425,107200,1072,Cochise County Community College District,Sierra Vista,AZ,85635-2317,31.564597,-110.246946,Higher Learning Commission,23276.04,27000,29025,NULL,6260,0.3974,0.0517,0.4552,0.0175,0.0041,0.0041,0.0466,0.0147,0.0086,0.4297,0.5703,2,2,0.2873,NULL
104443,1054208,10542,Empire Beauty School-Chandler,Chandler,AZ,85224,33.347586,-111.860423,National Accrediting Commission of Career Arts and Sciences,27860,18500,20872,NULL,16032,0.3409,0.2273,0.3182,0.0227,0.0682,0,0,0,0.0227,0.0909,0.9091,3,1,0.5789,NULL
104568,1085800,10858,Avalon Institute-Mesa,Mesa,AZ,85210,33.376583,-111.858305,National Accrediting Commission of Career Arts and Sciences,31125,19600,23844,NULL,16397,0.4294,0.0676,0.3588,0.0118,0.0118,0,0.0382,0,0.0824,0.0206,0.9794,3,1,0.6795,NULL
104577,107300,1073,Eastern Arizona College,Thatcher,AZ,85552-0769,32.843664,-109.76234,Higher Learning Commission,34782.41,29100,26852,NULL,8328,0.6338,0.0164,0.204,0.0065,0.0799,0.0065,0.0114,0.0091,0.0324,0.3392,0.6608,2,2,0.46,NULL
104586,147902,1479,Embry-Riddle Aeronautical University-Prescott,Prescott,AZ,86301-3720,34.616766,-112.449741,Southern Association of Colleges and Schools Commission on Colleges,80053.95,51400,62242,0.6254,35432,0.6168,0.0159,0.1419,0.0581,0.0044,0.0041,0.0612,0.0733,0.0243,0.733,0.267,1,4,NULL,0.5916
104665,2533200,25332,The School of Architecture,Paradise Valley,AZ,85253,33.566649,-111.941953,Higher Learning Commission,0,NULL,NULL,NULL,0,NULL,NULL,NULL,NULL,NULL,NULL,NULL,NULL,NULL,NULL,NULL,1,4,NULL,NULL
104708,107600,1076,Glendale Community College,Glendale,AZ,85302,33.570226,-112.190735,Higher Learning Commission,15454.65,31300,32833,NULL,9605,0.3905,0.0612,0.4101,0.0434,0.0123,0.0024,0.0429,0.0092,0.028,0.4147,0.5853,2,2,0.144,NULL
104717,107400,1074,Grand Canyon University,Phoenix,AZ,85017,33.513231,-112.129929,Higher Learning Commission,68668.22,36000,34441,0.8069,20585,0.4754,0.1578,0.2264,0.0319,0.0092,0.0063,0.0438,0.0128,0.0364,0.2857,0.7143,1,4,NULL,0.4657
105145,830300,8303,GateWay Community College,Phoenix,AZ,85034,33.449686,-111.997077,Higher Learning Commission,15753.97,36700,35466,NULL,10106,0.297,0.1089,0.4702,0.0348,0.0317,0.0013,0.0379,0.0031,0.015,0.3639,0.6361,2,2,0.1955,NULL
105154,107700,1077,Mesa Community College,Mesa,AZ,85202,33.390323,-111.871255,Higher Learning Commission,15814.7,32900,32992,NULL,10504,0.4531,0.0544,0.3241,0.0402,0.033,0.0033,0.0471,0.0188,0.026,0.4411,0.5589,2,2,0.1804,NULL
105206,1186400,11864,Mohave Community College,Kingman,AZ,86409-1238,35.270996,-114.029838,Higher Learning Commission,28115.38,27400,27973,NULL,7267,0.6349,0.0137,0.2548,0.0174,0.0237,0.0071,0.0353,0.0062,0.0071,0.2747,0.7253,2,2,0.183,NULL
105215,2100500,21005,Universal Technical Institute of Arizona Inc-Motorcycle Mechanics Institute Division,Phoenix,AZ,85027,33.684428,-112.121336,Accrediting Commission of Career Schools and Colleges,42433.24,33600,38658,NULL,19127,0.6337,0.0444,0.1153,0.0089,0.0203,0.0051,0.1191,0.0013,0.052,0.9417,0.0583,3,1,0.6468,NULL
105297,824600,8246,Dine College,Tsaile,AZ,86556,36.293328,-109.21684,Higher Learning Commission,27893.44,19000,22467,NULL,10604,0.0063,0.0008,0.0024,0,0.9857,0,0.0008,0.004,0,0.277,0.723,1,3,NULL,0.2021
105330,108200,1082,Northern Arizona University,Flagstaff,AZ,86011-4092,35.188449,-111.653724,Higher Learning Commission,59078.84,36900,41369,0.8164,14308,0.5484,0.0322,0.2617,0.0211,0.0281,0.0024,0.0564,0.0198,0.0298,0.3676,0.6324,1,4,NULL,0.5687
105349,1186200,11862,Northland Pioneer College,Holbrook,AZ,86025-0610,34.93031,-110.142199,Higher Learning Commission,24781.25,24400,23813,NULL,10471,0.4062,0.0018,0.144,0.0071,0.3867,0.0018,0.016,0,0.0364,0.3076,0.6924,2,2,0.0857,NULL
105367,193701,1937,Ottawa University-Phoenix,Phoenix,AZ,85021,33.572173,-112.113001,NULL,0,41600,42665,0.5389,0,0.5013,0.0491,0.3488,0.0258,0.0181,0,0.0052,0,0.0517,0.2584,0.7416,1,4,NULL,NULL
105428,107800,1078,Phoenix College,Phoenix,AZ,85013,33.481361,-112.088293,Higher Learning Commission,15552.97,29600,31223,NULL,9671,0.2246,0.0888,0.5675,0.0297,0.0263,0.0009,0.0328,0.0069,0.0226,0.3164,0.6836,2,2,0.1498,NULL
105525,726600,7266,Pima Community College,Tucson,AZ,85709-1275,32.222125,-110.886659,Higher Learning Commission,32496.48,28700,30066,NULL,3846,0.3548,0.0484,0.4882,0.0276,0.0207,0.0039,0.0193,0.0089,0.0283,0.3953,0.6047,2,2,0.178,NULL
105534,2217100,22171,Pima Medical Institute-Tucson,Tucson,AZ,85712,32.248067,-110.878783,Accrediting Bureau of Health Education Schools,0,28700,31568,NULL,0,0.366,0.0685,0.4046,0.0452,0.0188,0.0046,0.0832,0.001,0.0081,0.1797,0.8203,1,3,NULL,0.6609
105543,3678302,36783,Pima Medical Institute-Albuquerque,Albuquerque,NM,87110,35.104855,-106.59488,NULL,16410.89,28700,31568,NULL,20850,0.1848,0.0281,0.5017,0.0099,0.1667,0.0017,0.0957,0,0.0116,0.1304,0.8696,2,2,0.6619,NULL
105589,2065300,20653,Prescott College,Prescott,AZ,86301,34.5452,-112.477185,Higher Learning Commission,61402.44,28500,28834,0.9842,22082,0.6852,0.0097,0.0339,0.0145,0.0169,0.0048,0.0363,0.0073,0.1913,0.3608,0.6392,1,4,NULL,0.4878
105659,1168900,11689,Refrigeration School Inc,Phoenix,AZ,85034-1816,33.448692,-111.989357,Accrediting Commission of Career Schools and Colleges,33155.86,37200,41041,NULL,20872,0.379,0.0881,0.3122,0.0111,0.1271,0.0056,0.0457,0.0011,0.0301,0.9298,0.0702,2,2,0.7136,NULL
105668,2177500,21775,Rio Salado College,Tempe,AZ,85281,33.413309,-111.97417,Higher Learning Commission,15813.56,35100,28056,NULL,9156,0.4835,0.0973,0.2956,0.0239,0.0188,0.0019,0.0545,0.0016,0.0229,0.3518,0.6482,2,2,0.039,NULL
105677,2113800,21138,Roberto-Venn School of Luthiery,Phoenix,AZ,85007,33.45489,-112.086161,Accrediting Commission of Career Schools and Colleges,15000,25200,30759,NULL,21557,1,0,0,0,0,0,0,0,0,1,0,3,1,0.8667,NULL
105747,830400,8304,Scottsdale Community College,Scottsdale,AZ,85256,33.51135,-111.885186,Higher Learning Commission,15305.73,34900,37440,NULL,11088,0.5502,0.0447,0.2465,0.0286,0.0397,0.0023,0.0494,0.0119,0.0268,0.4137,0.5863,2,2,0.1715,NULL
105792,2146600,21466,South Mountain Community College,Phoenix,AZ,85042,33.382406,-112.032635,Higher Learning Commission,15300,28700,30347,NULL,9834,0.152,0.16,0.5802,0.0233,0.0281,0.0012,0.0302,0.0036,0.0213,0.3957,0.6043,2,2,0.1914,NULL
105899,711300,7113,Arizona Christian University,Glendale,AZ,85306-3216,33.622952,-112.181776,Higher Learning Commission,66662.01,32600,35500,0.7147,29065,0.4428,0.1314,0.2763,0.0147,0.0136,0.0034,0.0691,0.0328,0.0159,0.6161,0.3839,1,3,NULL,0.4379
106041,822100,8221,Universal Technical Institute of Arizona Inc,Avondale,AZ,85323,33.453005,-112.288123,Accrediting Commission of Career Schools and Colleges,43816.51,37000,43369,NULL,24166,0.3068,0.0233,0.2136,0.0152,0.0423,0.0184,0.0932,0,0.2873,0.9561,0.0439,2,2,0.6682,NULL
106111,945915,9459,Empire Beauty School-NW Phoenix,Phoenix,AZ,85051,33.538093,-112.118168,NULL,23937.5,16800,20807,NULL,14806,0,0.0984,0.1148,0,0.0164,0,0,0,0.7705,0,1,3,1,0.3256,NULL
106148,107900,1079,Yavapai College,Prescott,AZ,86301,34.547495,-112.453395,Higher Learning Commission,34109.06,29000,30810,NULL,6814,0.5842,0.0121,0.1956,0.0086,0.021,0.0035,0.0314,0.001,0.1425,0.3832,0.6168,2,2,0.3169,NULL
106245,110100,1101,University of Arkansas at Little Rock,Little Rock,AR,72204,34.723254,-92.339778,Higher Learning Commission,40319.15,34600,35410,0.5604,16065,0.4845,0.2705,0.0367,0.0212,0.0059,0,0.1427,0.0324,0.0062,0.3555,0.6445,1,4,NULL,0.4169
106263,110900,1109,University of Arkansas for Medical Sciences,Little Rock,AR,72205-7199,34.749048,-92.320046,Higher Learning Commission,0,68000,60527,NULL,0,0.6671,0.1146,0.0919,0.0465,0.0024,0.0024,0.0286,0.0048,0.0418,0.173,0.827,1,4,NULL,NULL
106306,108700,1087,Arkansas Baptist College,Little Rock,AR,72202-6068,34.734751,-92.290555,Higher Learning Commission,29699,21000,21762,NULL,16961,0.1838,0.6368,0.0577,0.0021,0,0.0363,0.015,0,0.0684,0.7991,0.2009,1,3,NULL,0.1246
106315,3005100,30051,Arkansas Beauty School-Little Rock,Little Rock,AR,72209,34.672171,-92.343366,National Accrediting Commission of Career Arts and Sciences,27000,PrivacySuppressed,15236,NULL,23066,0,0.8,0.0667,0,0,0.1333,0,0,0,0.2,0.8,3,1,0,NULL
106324,3997300,39973,Arkansas Beauty College,Russellville,AR,72801,35.27902,-93.135369,Accrediting Commission of Career Schools and Colleges,25636.36,PrivacySuppressed,18622,NULL,10659,0.8421,0.0263,0.0789,0.0263,0,0,0.0263,0,0,0.0263,0.9737,3,1,0.6364,NULL
106342,108800,1088,Lyon College,Batesville,AR,72501,35.777619,-91.625354,Higher Learning Commission,27625,31400,30527,0.5015,20706,0.5624,0.0752,0.0857,0.018,0.009,0.0045,0.015,0.0511,0.1789,0.5504,0.4496,1,3,NULL,0.4252
106351,3023400,30234,Arkansas Technical School,North Little Rock,AR,72114,34.753843,-92.266429,Accrediting Commission of Career Schools and Colleges,15000,17900,16238,NULL,20567,0.0714,0.9048,0.0119,0,0,0.0119,0,0,0,0.8095,0.1905,3,1,0,NULL
106360,2363502,23635,Arthur's Beauty College,Fort Smith,AR,72901-3342,35.379955,-94.410967,National Accrediting Commission of Career Arts and Sciences,25555.56,PrivacySuppressed,16600,NULL,10667,0.8621,0.069,0.069,0,0,0,0,0,0,0.1034,0.8966,3,1,0.52,NULL
106397,110800,1108,University of Arkansas,Fayetteville,AR,72701,36.070009,-94.176981,Higher Learning Commission,67870.39,40900,43807,0.7767,16507,0.7454,0.0417,0.0995,0.0271,0.0073,0.0012,0.0447,0.022,0.011,0.4496,0.5504,1,4,NULL,0.685
106412,108600,1086,University of Arkansas at Pine Bluff,Pine Bluff,AR,71601,34.244031,-92.018683,Higher Learning Commission,34903.41,23900,26331,0.5966,11631,0.0316,0.9029,0.0217,0.0033,0.0049,0.0008,0.0225,0.0098,0.0025,0.409,0.591,1,4,NULL,0.3892
106449,109100,1091,Arkansas State University-Beebe,Beebe,AR,72012-1000,35.074176,-91.895351,Higher Learning Commission,36144.71,26600,27523,NULL,9063,0.8245,0.0693,0.051,0.0112,0.0028,0.0019,0.0281,0.0009,0.0103,0.3528,0.6472,2,2,0.417,NULL
106458,109000,1090,Arkansas State University,Jonesboro,AR,72401,35.842388,-90.679988,Higher Learning Commission,54979.01,30900,32687,0.6719,14189,0.7308,0.1353,0.0438,0.0083,0.0032,0.0004,0.0248,0.043,0.0103,0.3839,0.6161,1,4,NULL,0.5301
106467,108900,1089,Arkansas Tech University,Russellville,AR,72801-2222,35.293237,-93.13562,Higher Learning Commission,45179.82,31600,32177,0.9766,11721,0.7431,0.0729,0.0855,0.0158,0.007,0.0009,0.0477,0.0271,0,0.4357,0.5643,1,4,NULL,0.4422
106485,108500,1085,University of Arkansas at Monticello,Monticello,AR,71656,33.590909,-91.811153,Higher Learning Commission,37082.07,27300,26554,NULL,10451,0.5425,0.2964,0.0693,0.0039,0.0024,0,0.0801,0.0044,0.001,0.4404,0.5596,1,4,NULL,0.3561
106494,2538503,25385,Arthur's Beauty College,Jacksonville,AR,72076,34.891572,-92.102579,National Accrediting Commission of Career Arts and Sciences,15000,18500,18529,NULL,10642,0.4737,0.2456,0.0175,0,0,0,0.0175,0,0.2456,0.0526,0.9474,3,1,0.4545,NULL
106546,3105200,31052,Baptist Health College Little Rock,Little Rock,AR,72210-2827,34.713115,-92.40692,Accrediting Bureau of Health Education Schools,36142.86,46200,47112,0.5,23234,0.6172,0.2723,0.053,0.0166,0.0015,0,0.0272,0.003,0.0091,0.1256,0.8744,2,2,0.8571,NULL
106625,2052200,20522,Black River Technical College,Pocahontas,AR,72455,36.239793,-90.951033,Higher Learning Commission,28114.29,25600,25951,NULL,4721,0.8905,0.029,0.0344,0.0018,0,0.0018,0.0335,0,0.009,0.3195,0.6805,2,2,0.2977,NULL
106704,109200,1092,University of Central Arkansas,Conway,AR,72035-0001,35.077945,-92.457672,Higher Learning Commission,57543.71,32600,34259,0.9378,16554,0.6663,0.1644,0.0608,0.0215,0.005,0.0007,0.041,0.0384,0.0019,0.3881,0.6119,1,4,NULL,0.4573
106713,109300,1093,Central Baptist College,Conway,AR,72034,35.083838,-92.445021,Higher Learning Commission,55416.67,34200,33652,0.4981,15482,0.6552,0.1372,0.1119,0.0054,0.0144,0,0.0307,0.0271,0.0181,0.5451,0.4549,1,3,NULL,0.3846
106795,2220900,22209,Cossatot Community College of the University of Arkansas,De Queen,AR,71832,34.043389,-94.3673,Higher Learning Commission,25572.41,23800,25721,NULL,5715,0.4977,0.1659,0.2715,0.0035,0.0104,0,0.051,0,0,0.3063,0.6937,2,2,0.4131,NULL
106810,109500,1095,Crowley's Ridge College,Paragould,AR,72450,36.064845,-90.584395,Higher Learning Commission,51418.92,24200,28886,NULL,14395,0.7674,0.1977,0.0174,0.0058,0,0,0,0,0.0116,0.5814,0.4186,1,3,NULL,0.3871
106883,1226000,12260,East Arkansas Community College,Forrest City,AR,72335-2204,35.041655,-90.767726,Higher Learning Commission,24086.96,22300,21287,NULL,6683,0.4862,0.4724,0.0153,0.0092,0,0,0.0107,0.0061,0,0.296,0.704,2,2,0.25,NULL
106892,2272400,22724,Eastern College of Health Vocations-Little Rock,Little Rock,AR,72205,34.75128,-92.341891,Accrediting Bureau of Health Education Schools,15000,19600,20734,NULL,13041,0.1875,0.7625,0.05,0,0,0,0,0,0,0.05,0.95,3,1,0.4852,NULL
106908,3124900,31249,Paul Mitchell the School-Little Rock,North Little Rock,AR,72117,34.789913,-92.222202,National Accrediting Commission of Career Arts and Sciences,37723.81,16300,18818,NULL,22000,0.5259,0.237,0.084,0.0074,0.0148,0,0.0222,0.0025,0.1062,0.1802,0.8198,3,1,0.5957,NULL
106980,1210500,12105,National Park College,Hot Springs,AR,71913,34.512687,-93.119248,Higher Learning Commission,31322.88,24900,24014,NULL,9198,0.733,0.1298,0.0934,0.019,0.0137,0,0,0,0.0111,0.3609,0.6391,2,2,0.1953,NULL
106999,2073500,20735,University of Arkansas Community College-Batesville,Batesville,AR,72503-3350,35.792923,-91.615852,Higher Learning Commission,30694.92,26400,26356,NULL,9914,0.8223,0.0225,0.0581,0.0118,0.0036,0.0012,0.0675,0.013,0,0.3045,0.6955,2,2,0.5228,NULL
107044,109700,1097,Harding University,Searcy,AR,72149-5615,35.247386,-91.726143,Higher Learning Commission,75641.77,35600,39240,0.5507,19456,0.7993,0.0484,0.0392,0.012,0.0023,0.0014,0.0352,0.0593,0.0029,0.4459,0.5541,1,4,NULL,0.7152
107071,109800,1098,Henderson State University,Arkadelphia,AR,71999-0001,34.128155,-93.059703,Higher Learning Commission,57405.56,29300,32627,0.749,14902,0.6285,0.1871,0.0657,0.0158,0.0038,0.0104,0.0703,0.0134,0.005,0.4395,0.5605,1,4,NULL,0.3411
107080,109900,1099,Hendrix College,Conway,AR,72032-3080,35.101565,-92.443256,Higher Learning Commission,70765.85,35100,38321,0.7054,19746,0.4657,0.061,0.0836,0.0263,0.0028,0.0009,0.2235,0.0009,0.1352,0.4854,0.5146,1,4,NULL,0.655
107099,3007100,30071,Hot Springs Beauty College,Hot Springs,AR,71901,34.496057,-93.037277,National Accrediting Commission of Career Arts and Sciences,20052.63,PrivacySuppressed,14071,NULL,11008,0.7407,0.1358,0.037,0.0123,0.0123,0,0.0617,0,0,0.0247,0.9753,3,1,0.3846,NULL
107123,2330800,23308,Jefferson Regional Medical Center School of Nursing,Pine Bluff,AR,71603,34.187831,-92.018045,Accrediting Bureau of Health Education Schools,0,PrivacySuppressed,54364,NULL,0,0.7636,0.1818,0.0364,0.0182,0,0,0,0,0,0.0727,0.9273,2,2,NULL,NULL
107141,110000,1100,John Brown University,Siloam Springs,AR,72761,36.189812,-94.560283,Higher Learning Commission,71481.74,45300,41915,0.5886,21957,0.7168,0.0202,0.0835,0.0125,0.0146,0.0014,0.0571,0.0682,0.0257,0.3869,0.6131,1,4,NULL,0.6447
107220,2341700,23417,Career Academy of Hair Design,Springdale,AR,72764-7128,36.167605,-94.12947,National Accrediting Commission of Career Arts and Sciences,25142.86,18900,18444,NULL,11329,0.6927,0.0365,0.1875,0.0417,0.0417,0,0,0,0,0.0521,0.9479,3,1,0.5842,NULL
107293,1074100,10741,Academy of Salon and Spa,Fort Smith,AR,72901,35.38097,-94.41616,National Accrediting Commission of Career Arts and Sciences,35384.62,15500,15986,NULL,15947,0.7547,0.0189,0.1132,0,0.0755,0,0.0377,0,0,0,1,3,1,0.85,NULL
107318,2348200,23482,Arkansas State University Mid-South,West Memphis,AR,72301-3829,35.145736,-90.22285,Higher Learning Commission,28258.06,22200,23123,NULL,6251,0.3135,0.5832,0.0438,0.0088,0.0018,0,0.028,0.0193,0.0018,0.359,0.641,2,2,0.1624,NULL
107327,1286000,12860,Arkansas Northeastern College,Blytheville,AR,72316-1109,35.898597,-89.921005,Higher Learning Commission,24694.29,26000,26669,NULL,3648,0.6229,0.2985,0.0565,0.0049,0.0012,0.0012,0.0123,0,0.0025,0.3587,0.6413,2,2,0.2713,NULL
107442,2284200,22842,New Tyler Barber College Inc,North Little Rock,AR,72114-4973,34.760085,-92.254171,Accrediting Commission of Career Schools and Colleges,15000,PrivacySuppressed,17123,NULL,15668,0,1,0,0,0,0,0,0,0,0.6571,0.3429,3,1,0.7,NULL
107460,1226100,12261,North Arkansas College,Harrison,AR,72601-5508,36.219909,-93.08844,Higher Learning Commission,33931.82,25000,26858,NULL,6439,0.8101,0.0231,0.0958,0.0074,0.0017,0,0.0421,0.0058,0.014,0.3765,0.6235,2,2,0.2714,NULL
107488,2073700,20737,Northwest Technical Institute,Springdale,AR,72764,36.178032,-94.115346,Council on Occupational Education,27162.39,30500,34301,NULL,15534,0.6183,0.0376,0.2742,0.0215,0.0215,0.0161,0.0108,0,0,0.6559,0.3441,3,1,0.6957,NULL
107512,110200,1102,Ouachita Baptist University,Arkadelphia,AR,71998-0001,34.126093,-93.052471,Higher Learning Commission,79397.99,34600,38561,0.6177,20639,0.8059,0.0711,0.0553,0.0099,0.0033,0,0.0322,0.0224,0,0.4059,0.5941,1,3,NULL,0.6048
107521,997600,9976,Arkansas State University Three Rivers,Malvern,AR,72104-0816,34.378745,-92.821416,Higher Learning Commission,27517.54,25700,27688,NULL,6704,0.6261,0.2674,0.0543,0.0087,0.0022,0.0022,0.0391,0,0,0.2457,0.7543,2,2,0.3,NULL
107549,2087000,20870,Ozarka College,Melbourne,AR,72556-0010,36.053031,-91.896355,Higher Learning Commission,24283.46,22600,22152,NULL,5694,0.9488,0.0125,0.0208,0.0069,0.0111,0,0,0,0,0.2618,0.7382,2,2,0.5692,NULL
107558,109400,1094,University of the Ozarks,Clarksville,AR,72830,35.476278,-93.467221,Higher Learning Commission,53952.21,28700,32401,0.559,14323,0.414,0.0722,0.1264,0.0144,0.0024,0.0012,0.0325,0.2792,0.0578,0.5006,0.4994,1,3,NULL,0.4737
107585,524500,5245,University of Arkansas Community College-Morrilton,Morrilton,AR,72110,35.172136,-92.728507,Higher Learning Commission,33721.34,28600,27886,1,7410,0.7131,0.0865,0.1055,0.0061,0.0012,0.0006,0.0681,0.0153,0.0037,0.3574,0.6426,2,2,0.371,NULL
107600,110300,1103,Philander Smith College,Little Rock,AR,72202-3799,34.737131,-92.283015,Higher Learning Commission,30630.63,23600,25327,NULL,14046,0.0013,0.9133,0.0251,0,0.0013,0.0025,0.0176,0.0389,0,0.348,0.652,1,3,NULL,0.3364
107619,110400,1104,Phillips Community College of the University of Arkansas,Helena,AR,72342-0785,34.546155,-90.616884,Higher Learning Commission,25734.38,21000,22857,NULL,4704,0.4519,0.5008,0.0253,0.0051,0.0017,0,0.0152,0,0,0.2968,0.7032,2,2,0.4052,NULL
107637,570700,5707,Southeast Arkansas College,Pine Bluff,AR,71603,34.210309,-92.025936,Higher Learning Commission,25951.46,24000,25003,NULL,7142,0.1889,0.57,0.2258,0.0087,0,0.0011,0.0054,0,0,0.2856,0.7144,2,2,0.1919,NULL
107655,2202400,22024,Professional Cosmetology Education Center,El Dorado,AR,71730-4009,33.216032,-92.664101,Middle States Commission on Secondary Education,15000,PrivacySuppressed,16678,NULL,5845,0.4737,0.4737,0.0263,0,0,0,0,0,0.0263,0,1,3,1,0.5556,NULL
107664,2075300,20753,University of Arkansas-Pulaski Technical College,North Little Rock,AR,72118-3347,34.782783,-92.299184,Higher Learning Commission,34149.92,25100,25605,NULL,12788,0.424,0.4113,0.0362,0.0176,0.0058,0.0014,0.0401,0.0067,0.0568,0.338,0.662,2,2,0.2415,NULL
107725,573200,5732,University of Arkansas Hope-Texarkana,Hope,AR,71801,33.641665,-93.596762,Higher Learning Commission,26483.05,26300,26285,NULL,6613,0.5444,0.3477,0.0887,0.0048,0.0024,0.0012,0.006,0,0.0048,0.2446,0.7554,2,2,0.3774,NULL
107743,2111100,21111,University of Arkansas Community College Rich Mountain,Mena,AR,71953,34.591449,-94.219799,Higher Learning Commission,30557.52,22100,23664,NULL,5751,0.7616,0.0125,0.1093,0.0054,0.0251,0.0036,0.0215,0.052,0.009,0.3656,0.6344,2,2,0.5161,NULL
107789,792100,7921,Paul Mitchell the School-Arkansas,Fayetteville,AR,72703,36.126373,-94.153892,National Accrediting Commission of Career Arts and Sciences,43790.7,17200,20342,NULL,16795,0.8119,0,0.1485,0,0.0297,0.0099,0,0,0,0.0099,0.9901,3,1,0.7813,NULL
107831,2569600,25696,Searcy Beauty College,Searcy,AR,72143,35.239148,-91.735135,National Accrediting Commission of Career Arts and Sciences,16090.91,12600,16578,NULL,12323,0.8608,0.0633,0.038,0,0.0253,0,0.0127,0,0,0,1,3,1,0.3824,NULL
107840,110500,1105,Shorter College,N Little Rock,AR,72114,34.75933,-92.261331,Transnational Association of Christian Colleges and Schools,16333.33,NULL,NULL,NULL,15709,0.1256,0.852,0.0135,0,0.0045,0,0.0045,0,0,0.2735,0.7265,2,2,0.42,NULL
107877,110600,1106,Williams Baptist University,Walnut Ridge,AR,72476,36.125676,-90.940277,Higher Learning Commission,51766.67,29300,32457,0.693,16548,0.7638,0.1121,0.0379,0,0.0155,0.0017,0.019,0.05,0,0.481,0.519,1,4,NULL,0.378
107974,2074600,20746,South Arkansas Community College,El Dorado,AR,71731-7010,33.209446,-92.666087,Higher Learning Commission,15000,28800,25793,NULL,7293,0.5159,0.3765,0.0578,0.004,0.001,0,0.0289,0.012,0.004,0.255,0.745,2,2,0.2069,NULL
107983,110700,1107,Southern Arkansas University Main Campus,Magnolia,AR,71753,33.291618,-93.235922,Higher Learning Commission,48032.1,30400,32077,0.6853,15321,0.6649,0.2384,0.0493,0.0064,0.0051,0,0.0199,0.0157,0.0003,0.4495,0.5505,1,4,NULL,0.4261
107992,773800,7738,Southern Arkansas University Tech,Camden,AR,71701-1906,33.628367,-92.721629,Higher Learning Commission,24567.57,26400,26908,NULL,8042,0.4286,0.4397,0.043,0,0.0028,0,0.0804,0.0055,0,0.4327,0.5673,2,2,0.4107,NULL
108065,3214300,32143,Velvatex College of Beauty Culture,Little Rock,AR,72202-5452,34.735685,-92.289597,National Accrediting Commission of Career Arts and Sciences,15000,PrivacySuppressed,NULL,NULL,8165,0,1,0,0,0,0,0,0,0,0,1,3,1,0.8571,NULL
108092,111000,1110,University of Arkansas-Fort Smith,Fort Smith,AR,72913-3649,35.384184,-94.373729,Higher Learning Commission,52795.98,30700,31022,NULL,9062,0.6184,0.0364,0.1471,0.0529,0.0228,0.002,0.1077,0.0128,0,0.3937,0.6063,1,4,NULL,0.3108
108232,753100,7531,Academy of Art University,San Francisco,CA,94105,37.787943,-122.400578,Western Association of Schools and Colleges Senior Colleges and University Commission,55948.98,32800,30780,NULL,36143,0.156,0.0707,0.1169,0.046,0.0045,0.0037,0.0349,0.1985,0.3689,0.4276,0.5724,1,4,NULL,0.4688
108269,3288300,32883,Academy of Chinese Culture and Health Sciences,Oakland,CA,94612,37.805972,-122.269839,Accrediting Commission for Acupuncture and Oriental Medicine,0,NULL,NULL,NULL,0,NULL,NULL,NULL,NULL,NULL,NULL,NULL,NULL,NULL,NULL,NULL,1,4,NULL,NULL
108667,672000,6720,College of Alameda,Alameda,CA,94501,37.781017,-122.279303,Western Association of Schools and Colleges Accrediting Commission for Community and Junior Colleges,24556.18,29000,33101,NULL,10342,0.1645,0.1725,0.245,0.2556,0.0024,0.0053,0.0656,0.0502,0.039,0.4002,0.5998,2,2,0.2576,NULL
108807,111100,1111,Allan Hancock College,Santa Maria,CA,93454-6399,34.943716,-120.421144,Western Association of Schools and Colleges Accrediting Commission for Community and Junior Colleges,31459.96,27200,32177,NULL,3814,0.2232,0.0183,0.6543,0.0349,0.0029,0.0032,0.0316,0.0017,0.0298,0.4267,0.5733,2,2,0.3359,NULL
108852,746501,7465,American Academy of Dramatic Arts-Los Angeles,Los Angeles,CA,90028,34.095378,-118.343701,Middle States Commission on Higher Education,63305.56,21200,27889,0.6913,40050,0.3019,0.1604,0.1698,0.0094,0,0,0.066,0.2925,0,0.3774,0.6226,2,1,0.7168,NULL
108861,112000,1120,Berkeley School of Theology,Berkeley,CA,94704-3029,37.865252,-122.256149,Commission on Accrediting of the Association of Theological Schools,0,NULL,NULL,NULL,0,NULL,NULL,NULL,NULL,NULL,NULL,NULL,NULL,NULL,NULL,NULL,1,4,NULL,NULL
108870,2222000,22220,American Film Institute Conservatory,Los Angeles,CA,90027-1625,34.10767,-118.310018,Western Association of Schools and Colleges Senior Colleges and University Commission,0,NULL,NULL,NULL,0,NULL,NULL,NULL,NULL,NULL,NULL,NULL,NULL,NULL,NULL,NULL,1,4,NULL,NULL
108977,1307400,13074,American Beauty College,West Covina,CA,91790,34.069367,-117.936959,National Accrediting Commission of Career Arts and Sciences,30428.57,PrivacySuppressed,19441,NULL,13331,0.1842,0.0439,0.7368,0.0175,0.0088,0,0,0.0088,0,0.2807,0.7193,3,1,0.6667,NULL
109040,2241800,22418,American Career College-Los Angeles,Los Angeles,CA,90004,34.079323,-118.292481,Accrediting Bureau of Health Education Schools,22916.67,27400,32192,NULL,19440,0.0742,0.1536,0.6008,0.1045,0.0011,0.0131,0.0508,0,0.0017,0.2005,0.7995,2,2,0.7226,NULL
109086,2099200,20992,American Conservatory Theater,San Francisco,CA,94102,37.786923,-122.410265,Western Association of Schools and Colleges Senior Colleges and University Commission,0,PrivacySuppressed,NULL,NULL,0,1,0,0,0,0,0,0,0,0,1,0,1,4,NULL,NULL
109208,123200,1232,American River College,Sacramento,CA,95841-4286,38.65085,-121.349672,Western Association of Schools and Colleges Accrediting Commission for Community and Junior Colleges,28715.8,27900,29873,NULL,5561,0.408,0.0737,0.2558,0.1414,0.0055,0.0095,0.0623,0.0035,0.0404,0.4278,0.5722,2,2,0.3063,NULL
109350,111300,1113,Antelope Valley Community College District,Lancaster,CA,93536-5426,34.676207,-118.186166,Western Association of Schools and Colleges Accrediting Commission for Community and Junior Colleges,28773.01,25100,27265,NULL,9277,0.1632,0.1194,0.6097,0.036,0.0022,0.0015,0.045,0.0008,0.022,0.3975,0.6025,1,3,NULL,0.2732
109651,111600,1116,Art Center College of Design,Pasadena,CA,91103,34.169031,-118.185102,Western Association of Schools and Colleges Senior Colleges and University Commission,62781.25,48800,52191,0.7609,46054,0.1185,0.0131,0.0944,0.3346,0.001,0.0037,0.033,0.4012,0.0005,0.4258,0.5742,1,4,NULL,0.7143
109721,902200,9022,Associated Technical College-Los Angeles,Los Angeles,CA,90017-1604,34.056102,-118.272364,Accrediting Commission of Career Schools and Colleges,15517.47,20500,18830,NULL,22002,0.25,0.3587,0.3152,0,0,0,0.0543,0,0.0217,0.2826,0.7174,3,1,0.5731,NULL
109730,2553500,25535,Associated Technical College-San Diego,San Diego,CA,92108-1630,32.773178,-117.135196,Accrediting Commission of Career Schools and Colleges,15000,19600,19944,NULL,21802,0.2667,0.2889,0.3333,0,0,0.0444,0,0,0.0667,0.8444,0.1556,3,1,0.7228,NULL
109785,111700,1117,Azusa Pacific University,Azusa,CA,91702-7000,34.130047,-117.888375,Western Association of Schools and Colleges Senior Colleges and University Commission,67250,48300,49365,0.936,30744,0.3248,0.0627,0.3573,0.1201,0.0031,0.0087,0.0616,0.0318,0.03,0.3355,0.6645,1,4,NULL,0.6622
109819,111800,1118,Bakersfield College,Bakersfield,CA,93305-1299,35.40911,-118.973753,Western Association of Schools and Colleges Accrediting Commission for Community and Junior Colleges,27643.68,27000,27051,NULL,5495,0.1897,0.0473,0.6698,0.043,0.0026,0.001,0.0358,0.0021,0.0087,0.4151,0.5849,1,3,NULL,0.2127
109907,111900,1119,Barstow Community College,Barstow,CA,92311,34.870285,-117.023412,Western Association of Schools and Colleges Accrediting Commission for Community and Junior Colleges,22851.35,26000,25048,NULL,8815,0.2622,0.1486,0.4598,0.0318,0.0055,0.0123,0.0577,0.0009,0.0214,0.2935,0.7065,2,2,0.3502,NULL
109934,705000,7050,Bellus Academy-Chula Vista,Chula Vista,CA,91911,32.614773,-117.083738,National Accrediting Commission of Career Arts and Sciences,15000,20400,22666,NULL,21855,0.0689,0.1557,0.5778,0.0509,0.009,0.012,0.1138,0,0.012,0.1886,0.8114,2,1,0.5172,NULL
110060,3266300,32663,Bethesda University,Anaheim,CA,92801,33.842295,-117.941323,Transnational Association of Christian Colleges and Schools,49291.67,PrivacySuppressed,37107,NULL,17519,0.0667,0.0947,0.1895,0.1649,0,0,0.0281,0.4561,0,0.7263,0.2737,1,4,NULL,0.24
110097,112200,1122,Biola University,La Mirada,CA,90639-0001,33.906203,-118.014374,Western Association of Schools and Colleges Senior Colleges and University Commission,75509.03,38700,42464,0.6438,33269,0.4285,0.031,0.2085,0.1537,0.003,0.0174,0.0671,0.0519,0.0391,0.3671,0.6329,1,4,NULL,0.714
110194,2543400,25434,Brownson Technical School,Anaheim,CA,92805,33.819032,-117.905774,Accrediting Commission of Career Schools and Colleges,32321.62,40500,54027,NULL,29963,0.3158,0.0175,0.4737,0.193,0,0,0,0,0,0.9825,0.0175,3,1,0.8698,NULL
110219,716400,7164,Bryan University,Tempe,AZ,85281,33.437779,-111.944197,Accrediting Commission of Career Schools and Colleges,30279.57,34800,32320,NULL,15604,0.4348,0.1852,0.0681,0.0089,0.0104,0.0022,0.0874,0,0.203,0.3289,0.6711,1,3,NULL,0.2516
110246,807300,8073,Butte College,Oroville,CA,95965-8399,39.649782,-121.644831,Western Association of Schools and Colleges Accrediting Commission for Community and Junior Colleges,31288.01,29300,29924,NULL,6315,0.503,0.0209,0.3101,0.0602,0.0104,0.0045,0.0596,0.0106,0.0207,0.4201,0.5799,2,2,0.2263,NULL
110316,1215400,12154,California Institute of Integral Studies,San Francisco,CA,94103,37.774924,-122.416102,Western Association of Schools and Colleges Senior Colleges and University Commission,0,38300,33918,NULL,0,0.551,0.102,0.1633,0.0408,0.0102,0,0.0612,0.0102,0.0612,0.2347,0.7653,1,4,NULL,NULL
110334,112400,1124,Cabrillo College,Aptos,CA,95003,36.989448,-121.924797,Western Association of Schools and Colleges Accrediting Commission for Community and Junior Colleges,32486.07,29300,33009,NULL,11130,0.4102,0.0093,0.4731,0.0302,0.003,0.0017,0.0524,0.006,0.0141,0.4151,0.5849,2,2,0.3002,NULL
110361,112500,1125,California Baptist University,Riverside,CA,92504-3297,33.929321,-117.425619,Western Association of Schools and Colleges Senior Colleges and University Commission,61973.07,40000,46036,0.8018,26719,0.3651,0.0635,0.3801,0.0643,0.0057,0.008,0.0552,0.0209,0.0372,0.3691,0.6309,1,4,NULL,0.6195
110370,112700,1127,California College of the Arts,San Francisco,CA,94107-2247,37.767485,-122.399451,Western Association of Schools and Colleges Senior Colleges and University Commission,58897.85,36200,38110,0.8545,33122,0.1657,0.0531,0.1453,0.1837,0.0065,0.0041,0.0122,0.3935,0.0359,0.3804,0.6196,1,4,NULL,0.6703
110398,394700,3947,University of California-Hastings College of Law,San Francisco,CA,94102-4978,37.781137,-122.4157,Western Association of Schools and Colleges Senior Colleges and University Commission,0,100800,NULL,NULL,0,NULL,NULL,NULL,NULL,NULL,NULL,NULL,NULL,NULL,NULL,NULL,1,4,NULL,NULL
110404,113100,1131,California Institute of Technology,Pasadena,CA,91125,34.137349,-118.125878,Western Association of Schools and Colleges Senior Colleges and University Commission,79189.19,68500,129420,0.0669,26542,0.2342,0.0189,0.1809,0.3973,0,0.0011,0.0877,0.0755,0.0044,0.5438,0.4562,1,4,NULL,0.9156
110413,113300,1133,California Lutheran University,Thousand Oaks,CA,91360-2787,34.224566,-118.878924,Western Association of Schools and Colleges Senior Colleges and University Commission,65620.54,43700,49746,0.7439,27410,0.3907,0.0375,0.3925,0.0536,0.0014,0.005,0.0725,0.0246,0.0221,0.4332,0.5668,1,4,NULL,0.7086
110422,114300,1143,California Polytechnic State University-San Luis Obispo,San Luis Obispo,CA,93407,35.299513,-120.657311,Western Association of Schools and Colleges Senior Colleges and University Commission,72958.75,54700,66662,0.3843,20677,0.5365,0.0076,0.1838,0.1344,0.0013,0.0022,0.0771,0.0209,0.0361,0.5094,0.4906,1,4,NULL,0.8309
110468,1111700,11117,Alliant International University-San Diego,San Diego,CA,92131,32.897056,-117.094398,Western Association of Schools and Colleges Senior Colleges and University Commission,0,60000,48168,0.381,0,0.4867,0.0929,0.2434,0.0708,0,0.0088,0.0487,0.0133,0.0354,0.3673,0.6327,1,4,NULL,0.2
110486,799300,7993,California State University-Bakersfield,Bakersfield,CA,93311-1099,35.350005,-119.104711,Western Association of Schools and Colleges Senior Colleges and University Commission,40789.76,39100,40335,0.7838,7454,0.1383,0.0439,0.6215,0.0637,0.0028,0.0022,0.0217,0.0426,0.0633,0.3552,0.6448,1,4,NULL,0.4629
110495,115700,1157,California State University-Stanislaus,Turlock,CA,95382-0299,37.52577,-120.852511,Western Association of Schools and Colleges Senior Colleges and University Commission,43411.82,39300,44551,0.8932,6566,0.19,0.021,0.5806,0.0894,0.0015,0.0057,0.0293,0.0389,0.0436,0.3344,0.6656,1,4,NULL,0.5726
110510,114200,1142,California State University-San Bernardino,San Bernardino,CA,92407-2393,34.182622,-117.323801,Western Association of Schools and Colleges Senior Colleges and University Commission,40183.36,37400,42079,0.7812,8107,0.1047,0.0477,0.6868,0.05,0.0019,0.0014,0.021,0.0576,0.0288,0.3778,0.6222,1,4,NULL,0.5874
110529,114400,1144,California State Polytechnic University-Pomona,Pomona,CA,91768,34.057912,-117.821476,Western Association of Schools and Colleges Senior Colleges and University Commission,50198.89,42900,51735,0.6481,14304,0.1427,0.0317,0.4939,0.2167,0.0013,0.0021,0.0346,0.0501,0.027,0.5324,0.4676,1,4,NULL,0.674
110538,114600,1146,California State University-Chico,Chico,CA,95929-0150,39.729712,-121.844859,Western Association of Schools and Colleges Senior Colleges and University Commission,54419.67,42900,47409,0.9017,16218,0.4309,0.0287,0.3573,0.0552,0.0048,0.0025,0.0548,0.0243,0.0415,0.4593,0.5407,1,4,NULL,0.6515
110547,114100,1141,California State University-Dominguez Hills,Carson,CA,90747-0005,33.864766,-118.255917,Western Association of Schools and Colleges Senior Colleges and University Commission,33392.32,38300,43481,0.812,4026,0.0526,0.107,0.6713,0.0686,0.0012,0.0031,0.024,0.0468,0.0253,0.367,0.633,1,4,NULL,0.4751
110556,114700,1147,California State University-Fresno,Fresno,CA,93740,36.811154,-119.744569,Western Association of Schools and Colleges Senior Colleges and University Commission,41062.42,37200,42306,0.9011,6230,0.1735,0.0283,0.5654,0.1229,0.0039,0.0017,0.0259,0.0494,0.0291,0.4052,0.5948,1,4,NULL,0.5754
110565,113700,1137,California State University-Fullerton,Fullerton,CA,92831-3599,33.881506,-117.885446,Western Association of Schools and Colleges Senior Colleges and University Commission,48250.25,38500,45657,0.6762,8003,0.1713,0.0197,0.4803,0.2103,0.0008,0.0018,0.0376,0.0533,0.0249,0.4184,0.5816,1,4,NULL,0.6868
110574,113800,1138,California State University-East Bay,Hayward,CA,94542,37.657694,-122.054135,Western Association of Schools and Colleges Senior Colleges and University Commission,45537.67,45200,52563,0.7328,13298,0.1478,0.096,0.3701,0.2294,0.0017,0.011,0.0526,0.0515,0.0398,0.3988,0.6012,1,4,NULL,0.4675
110583,113900,1139,California State University-Long Beach,Long Beach,CA,90840-0115,33.782818,-118.11204,Western Association of Schools and Colleges Senior Colleges and University Commission,48722.24,40000,46059,0.4212,10054,0.1628,0.0376,0.4604,0.2076,0.001,0.0025,0.0464,0.0584,0.0233,0.43,0.57,1,4,NULL,0.7333
110592,114000,1140,California State University-Los Angeles,Los Angeles,CA,90032-8506,34.066927,-118.168965,Western Association of Schools and Colleges Senior Colleges and University Commission,33305.26,37200,42517,0.7648,3302,0.0422,0.0337,0.7181,0.1142,0.0011,0.001,0.0128,0.0577,0.0193,0.4106,0.5894,1,4,NULL,0.524
110608,115300,1153,California State University-Northridge,Northridge,CA,91330,34.240126,-118.529319,Western Association of Schools and Colleges Senior Colleges and University Commission,38472.69,37400,42178,0.6581,8523,0.2061,0.0475,0.5271,0.0898,0.0008,0.0013,0.0292,0.0626,0.0356,0.4473,0.5527,1,4,NULL,0.5462
110617,115000,1150,California State University-Sacramento,Sacramento,CA,95819-2694,38.559415,-121.423549,Western Association of Schools and Colleges Senior Colleges and University Commission,45556.25,41800,47905,0.8309,11178,0.2451,0.0626,0.3553,0.1952,0.0021,0.0091,0.0596,0.035,0.0361,0.4326,0.5674,1,4,NULL,0.5358
110635,131200,1312,University of California-Berkeley,Berkeley,CA,94720,37.871918,-122.260463,Western Association of Schools and Colleges Senior Colleges and University Commission,54207.61,57600,65914,0.1748,16032,0.2184,0.0213,0.1867,0.3534,0.0008,0.0016,0.0589,0.126,0.0328,0.4604,0.5396,1,4,NULL,0.9234
110644,131300,1313,University of California-Davis,Davis,CA,95616-8678,38.539667,-121.749567,Western Association of Schools and Colleges Senior Colleges and University Commission,54628.77,45300,54621,0.4635,15768,0.2166,0.0204,0.2403,0.2837,0.0015,0.0037,0.0563,0.1645,0.0131,0.3907,0.6093,1,4,NULL,0.8625
110653,131400,1314,University of California-Irvine,Irvine,CA,92697,33.648434,-117.841248,Western Association of Schools and Colleges Senior Colleges and University Commission,46857.14,44300,52679,0.2992,12209,0.1293,0.0197,0.2514,0.3746,0.0007,0.0023,0.0468,0.1634,0.0117,0.473,0.527,1,4,NULL,0.8498
110662,131500,1315,University of California-Los Angeles,Los Angeles,CA,90095-1405,34.07178,-118.442179,Western Association of Schools and Colleges Senior Colleges and University Commission,53449.71,52000,55427,0.1433,15023,0.259,0.0317,0.2182,0.2894,0.0015,0.0019,0.0626,0.1032,0.0325,0.4142,0.5858,1,4,NULL,0.9129
110671,131600,1316,University of California-Riverside,Riverside,CA,92521,33.97246,-117.32741,Western Association of Schools and Colleges Senior Colleges and University Commission,50836.05,36800,45632,0.6578,11822,0.1119,0.0353,0.4144,0.3469,0.0012,0.0035,0.0418,0.0353,0.0096,0.4628,0.5372,1,4,NULL,0.7729
110680,131700,1317,University of California-San Diego,La Jolla,CA,92093,32.877749,-117.235866,Western Association of Schools and Colleges Senior Colleges and University Commission,52578.93,48200,56844,0.3661,15240,0.1907,0.0174,0.2179,0.3337,0.0009,0.0019,0.0521,0.1695,0.0159,0.498,0.502,1,4,NULL,0.8712
110699,131900,1319,University of California-San Francisco,San Francisco,CA,94143-0244,37.763737,-122.458489,Western Association of Schools and Colleges Senior Colleges and University Commission,0,105400,NULL,NULL,0,NULL,NULL,NULL,NULL,NULL,NULL,NULL,NULL,NULL,NULL,NULL,1,4,NULL,NULL
110705,132000,1320,University of California-Santa Barbara,Santa Barbara,CA,93106,34.416297,-119.846426,Western Association of Schools and Colleges Senior Colleges and University Commission,52005.09,42800,51496,0.367,16252,0.3042,0.0196,0.2468,0.1848,0.0016,0.0013,0.0871,0.1282,0.0264,0.4488,0.5512,1,4,NULL,0.8398
110714,132100,1321,University of California-Santa Cruz,Santa Cruz,CA,95064-1011,36.995584,-122.058801,Western Association of Schools and Colleges Senior Colleges and University Commission,57961.14,38400,45632,0.6473,17930,0.3011,0.0191,0.2718,0.2303,0.0009,0.0011,0.0824,0.0763,0.017,0.5283,0.4717,1,4,NULL,0.7555
110778,2267600,22676,Sofia University,Palo Alto,CA,94303,37.430325,-122.10866,Western Association of Schools and Colleges Senior Colleges and University Commission,0,NULL,NULL,NULL,0,0.2222,0.1111,0.3333,0,0,0,0.3333,0,0,0.2222,0.7778,1,4,NULL,NULL
110875,2065700,20657,California Beauty School,Modesto,CA,95354,37.645217,-120.99689,National Accrediting Commission of Career Arts and Sciences,19800,PrivacySuppressed,19678,NULL,12166,0.4681,0.0638,0.4255,0,0,0,0.0426,0,0,0,1,3,1,0.9032,NULL
110918,884400,8844,California Christian College,Fresno,CA,93727,36.749366,-119.711123,Transnational Association of Christian Colleges and Schools,15000,PrivacySuppressed,NULL,1,6560,0.2308,0.3077,0.3846,0.0769,0,0,0,0,0,0.6154,0.3846,1,3,NULL,NULL
111045,4274800,42748,Haven University,Garden Grove,CA,92840-1340,33.777392,-117.939412,Transnational Association of Christian Colleges and Schools,0,NULL,NULL,NULL,0,0,0.2632,0.0526,0.2105,0,0,0,0.4737,0,0.4737,0.5263,1,4,NULL,NULL
111054,1186500,11865,California Hair Design Academy,La Mesa,CA,91942-5055,32.765221,-117.024261,National Accrediting Commission of Career Arts and Sciences,15000,21300,19127,NULL,30135,0.4156,0.1039,0.2727,0.0909,0,0,0.1039,0,0.013,0.1688,0.8312,3,1,0.493,NULL
111081,113200,1132,California Institute of the Arts,Valencia,CA,91355-2397,34.39327,-118.566837,Western Association of Schools and Colleges Senior Colleges and University Commission,66871.62,34200,32758,0.2742,56876,0.399,0.0486,0.1444,0.0814,0.0026,0.0026,0.0669,0.2126,0.042,0.4724,0.5276,1,4,NULL,0.6649
111188,113400,1134,California State University Maritime Academy,Vallejo,CA,94590-8181,38.069061,-122.231551,Western Association of Schools and Colleges Senior Colleges and University Commission,75590.91,76700,80273,0.8249,21743,0.4576,0.0232,0.2293,0.1058,0.0055,0.0132,0.1103,0.0044,0.0507,0.8093,0.1907,1,4,NULL,0.6068
111391,1310300,13103,California Western School of Law,San Diego,CA,92101-3046,32.722192,-117.162416,Western Association of Schools and Colleges Senior Colleges and University Commission,0,65300,NULL,NULL,0,NULL,NULL,NULL,NULL,NULL,NULL,NULL,NULL,NULL,NULL,NULL,1,4,NULL,NULL
111434,697300,6973,Canada College,Redwood City,CA,94061-1099,37.44877,-122.265398,Western Association of Schools and Colleges Accrediting Commission for Community and Junior Colleges,31439.39,35500,40337,NULL,2390,0.2391,0.0255,0.4139,0.1729,0.0009,0.0117,0.0477,0.0521,0.0362,0.3802,0.6198,2,2,0.3438,NULL
111461,890300,8903,College of the Canyons,Santa Clarita,CA,91355-1899,34.403993,-118.568698,Western Association of Schools and Colleges Accrediting Commission for Community and Junior Colleges,31837.65,34000,34583,NULL,5094,0.2663,0.0543,0.5177,0.0994,0.003,0.0024,0.0244,0.0064,0.0261,0.5442,0.4558,2,2,0.4213,NULL
111513,2125000,21250,Career Academy of Beauty,Garden Grove,CA,92845,33.781018,-118.031697,National Accrediting Commission of Career Arts and Sciences,26785.71,21500,22285,NULL,14371,0.3352,0.0503,0.419,0.162,0,0.0112,0.0223,0,0,0.0168,0.9832,2,1,0.8033,NULL
111638,673100,6731,Casa Loma College-Van Nuys,Van Nuys,CA,91405,34.192829,-118.457781,Accrediting Bureau of Health Education Schools,30750,40200,38719,NULL,21725,0.3476,0.0732,0.4146,0.1159,0.0122,0.0061,0.0244,0.0061,0,0.3049,0.6951,1,2,NULL,0.3659
111708,2332809,23328,CET-San Diego,San Diego,CA,92102,32.711302,-117.105328,Council on Occupational Education,39883.33,23400,27103,NULL,22231,0.132,0.0812,0.3553,0.3959,0,0.0152,0.0152,0,0.0051,0.8376,0.1624,3,1,0.5597,NULL
111717,2332800,23328,CET-San Jose,San Jose,CA,95110,37.322723,-121.88698,Council on Occupational Education,36850,23400,27103,NULL,15686,0.076,0.0234,0.7836,0.0351,0.0058,0,0.076,0,0,0.6491,0.3509,3,1,0.7365,NULL
111726,2332810,23328,CET-El Centro,El Centro,CA,92243,32.790908,-115.549079,Council on Occupational Education,18428.57,23400,27103,NULL,9324,0.0208,0,0.9722,0,0,0,0.0069,0,0,0.6875,0.3125,3,1,0.9194,NULL
111744,2332814,23328,CET-Colton,Colton,CA,92324,34.077381,-117.353488,Council on Occupational Education,29868.42,23400,27103,NULL,16180,0.0963,0.1185,0.7407,0.0148,0,0.0074,0.0222,0,0,0.963,0.037,3,1,0.7119,NULL
111762,2332819,23328,CET-Watsonville,Watsonville,CA,95076,36.931833,-121.767991,Council on Occupational Education,15000,23400,27103,NULL,5868,0.0172,0.0086,0.9655,0,0,0.0086,0,0,0,0.4138,0.5862,3,1,0.8529,NULL
111799,2332813,23328,CET-Salinas,Salinas,CA,93906,36.707333,-121.65236,Council on Occupational Education,29538.46,23400,27103,NULL,6961,0,0,0.9877,0.0061,0.0061,0,0,0,0,0.1166,0.8834,3,1,0.7692,NULL
111887,116100,1161,Cerritos College,Norwalk,CA,90650-6298,33.886874,-118.097337,Western Association of Schools and Colleges Accrediting Commission for Community and Junior Colleges,31017.62,27900,31713,NULL,2310,0.0817,0.0642,0.7002,0.0795,0.0027,0.0037,0.0228,0.0051,0.0402,0.4538,0.5462,2,2,0.2969,NULL
111896,1011100,10111,Cerro Coso Community College,Ridgecrest,CA,93555-9571,35.567525,-117.66767,Western Association of Schools and Colleges Accrediting Commission for Community and Junior Colleges,28641.89,25400,28402,NULL,10364,0.3543,0.0878,0.42,0.0411,0.0246,0.006,0.0513,0.0007,0.0142,0.4558,0.5442,2,2,0.2892,NULL
111920,116200,1162,Chabot College,Hayward,CA,94545,37.642458,-122.105636,Western Association of Schools and Colleges Accrediting Commission for Community and Junior Colleges,31881.52,31900,36023,NULL,5146,0.1462,0.0895,0.4114,0.2462,0.002,0.016,0.0706,0.0056,0.0124,0.4374,0.5626,2,2,0.3439,NULL
111939,116300,1163,Chaffey College,Rancho Cucamonga,CA,91737-3002,34.147663,-117.573932,Western Association of Schools and Colleges Accrediting Commission for Community and Junior Colleges,28352.57,28200,30561,NULL,10964,0.1429,0.0707,0.6546,0.0687,0.0019,0.0024,0.0293,0.0056,0.0239,0.3663,0.6337,2,2,0.2819,NULL
111948,116400,1164,Chapman University,Orange,CA,92866,33.79302,-117.852518,Western Association of Schools and Colleges Senior Colleges and University Commission,82360.5,46900,53764,0.5826,44198,0.5154,0.0183,0.1702,0.1452,0.0011,0.0033,0.0806,0.0314,0.0344,0.3958,0.6042,1,4,NULL,0.8001
111966,1036500,10365,Charles R Drew University of Medicine and Science,Los Angeles,CA,90059,33.925658,-118.242791,Western Association of Schools and Colleges Senior Colleges and University Commission,47050,73200,65724,0.25,25621,0.0418,0.3347,0.3054,0.1213,0,0,0.046,0.0084,0.1423,0.3222,0.6778,1,4,NULL,0
112075,2070500,20705,Concordia University-Irvine,Irvine,CA,92612-3203,33.653665,-117.812305,Western Association of Schools and Colleges Senior Colleges and University Commission,63338.3,40800,47319,0.7818,27201,0.4686,0.0382,0.2578,0.1051,0.0035,0.0059,0.0775,0.0399,0.0035,0.3776,0.6224,1,4,NULL,0.5909
112084,1203100,12031,San Diego Christian College,Santee,CA,92071,32.842404,-116.978112,Western Association of Schools and Colleges Senior Colleges and University Commission,71425,31000,34669,0.4967,32024,0.4143,0.1002,0.3474,0.0401,0.0067,0.0156,0.0401,0.0156,0.02,0.5367,0.4633,1,4,NULL,0.55
112127,116500,1165,Church Divinity School of the Pacific,Berkeley,CA,94709-1211,37.876184,-122.261122,Commission on Accrediting of the Association of Theological Schools,0,NULL,NULL,NULL,0,NULL,NULL,NULL,NULL,NULL,NULL,NULL,NULL,NULL,NULL,NULL,1,4,NULL,NULL
112172,116600,1166,Citrus College,Glendora,CA,91741-1899,34.13537,-117.886469,Western Association of Schools and Colleges Accrediting Commission for Community and Junior Colleges,29798.87,26600,30533,NULL,4579,0.1504,0.0318,0.6596,0.0808,0.0023,0.0019,0.0281,0.0296,0.0154,0.4224,0.5776,2,2,0.4072,NULL
112181,2178700,21787,Citrus Heights Beauty College,Citrus Heights,CA,95610-1410,38.712951,-121.289529,National Accrediting Commission of Career Arts and Sciences,54868.42,NULL,NULL,NULL,16378,0.6296,0.0247,0.1975,0.0617,0.0123,0.037,0.0123,0,0.0247,0,1,3,1,0.8947,NULL
112190,450200,4502,City College of San Francisco,San Francisco,CA,94112-1898,37.725953,-122.451155,Western Association of Schools and Colleges Accrediting Commission for Community and Junior Colleges,28668.22,31600,37043,NULL,6382,0.2056,0.066,0.2654,0.3358,0.0024,0.009,0.0506,0.023,0.0421,0.4509,0.5491,2,2,0.3679,NULL
112251,116900,1169,Claremont Graduate University,Claremont,CA,91711-6160,34.103585,-117.713703,Western Association of Schools and Colleges Senior Colleges and University Commission,0,PrivacySuppressed,NULL,NULL,0,NULL,NULL,NULL,NULL,NULL,NULL,NULL,NULL,NULL,NULL,NULL,1,4,NULL,NULL
112260,117000,1170,Claremont McKenna College,Claremont,CA,91711-6400,34.102154,-117.711188,Western Association of Schools and Colleges Senior Colleges and University Commission,66382.61,68200,80781,0.1334,21993,0.3788,0.0499,0.1704,0.1347,0.0016,0.0016,0.0713,0.1418,0.0499,0.4865,0.5135,1,4,NULL,0.9228
112288,2497300,24973,Milan Institute-Visalia,Visalia,CA,93277,36.27164,-119.312151,Council on Occupational Education,26973.91,21200,26211,NULL,20193,0.1279,0.0444,0.7285,0.0157,0.0209,0.0131,0.0444,0,0.0052,0.0836,0.9164,3,1,0.701,NULL
112367,2309500,23095,Clovis Adult Education,Clovis,CA,93611,36.834459,-119.690369,Council on Occupational Education,39000,33800,34081,NULL,16167,0.1657,0.0651,0.4951,0.1736,0.0217,0.0316,0.0394,0,0.0079,0.1105,0.8895,3,1,0.7545,NULL
112385,2063500,20635,Coastline Community College,Fountain Valley,CA,92708-2597,33.715634,-117.929143,Western Association of Schools and Colleges Accrediting Commission for Community and Junior Colleges,22675,32700,33964,NULL,9206,0.2885,0.0758,0.3058,0.2119,0.0048,0.0046,0.0487,0.0245,0.0353,0.5356,0.4644,2,2,0.3117,NULL
112394,117700,1177,University of Silicon Valley,San Jose,CA,95134,37.414049,-121.94087,Western Association of Schools and Colleges Senior Colleges and University Commission,53535.71,37600,39458,0.4194,25714,0.2824,0.0725,0.2353,0.1961,0.0078,0.0059,0.0765,0.0176,0.1059,0.702,0.298,1,4,NULL,0.4571
112455,3577300,35773,Coba Academy,Anaheim,CA,92801,33.841141,-117.943108,National Accrediting Commission of Career Arts and Sciences,29137.93,24800,18851,NULL,16302,0.0581,0.0465,0.6977,0.093,0.0233,0.0116,0,0,0.0698,0.1977,0.8023,3,1,0.678,NULL
112525,2482700,24827,Western University of Health Sciences,Pomona,CA,91766-1854,34.058092,-117.747732,Western Association of Schools and Colleges Senior Colleges and University Commission,0,109800,NULL,NULL,0,NULL,NULL,NULL,NULL,NULL,NULL,NULL,NULL,NULL,NULL,NULL,1,4,NULL,NULL
112561,770700,7707,Columbia College,Sonora,CA,95370,38.030367,-120.388385,Western Association of Schools and Colleges Accrediting Commission for Community and Junior Colleges,27196.81,25700,29164,NULL,7921,0.6783,0.0293,0.2255,0.0223,0.013,0.0054,0.0049,0,0.0212,0.4185,0.5815,2,2,0.3554,NULL
112570,2110200,21102,Columbia College Hollywood,Tarzana,CA,91356-1411,34.17972,-118.538793,Western Association of Schools and Colleges Senior Colleges and University Commission,50589.55,26900,34112,NULL,32909,0.3763,0.1934,0.2342,0.0487,0.0145,0.0053,0.0539,0.0303,0.0434,0.6,0.4,1,3,NULL,0.5824
112686,4281700,42817,Compton College,Compton,CA,90221-5393,33.878226,-118.209463,Western Association of Schools and Colleges Accrediting Commission for Community and Junior Colleges,25021.05,26800,31801,NULL,10926,0.0164,0.2704,0.6066,0.0384,0.0022,0.0057,0.027,0,0.0333,0.2921,0.7079,2,2,0.1769,NULL
112826,119000,1190,Contra Costa College,San Pablo,CA,94806,37.969381,-122.337377,Western Association of Schools and Colleges Accrediting Commission for Community and Junior Colleges,28729.73,29200,32485,NULL,6683,0.114,0.1313,0.4502,0.1811,0.001,0.0062,0.0586,0.0079,0.0498,0.3618,0.6382,2,2,0.2125,NULL
113096,753600,7536,Cosumnes River College,Sacramento,CA,95823-5799,38.45295,-121.423108,Western Association of Schools and Colleges Accrediting Commission for Community and Junior Colleges,30229.41,27500,31152,NULL,4188,0.2327,0.0847,0.2787,0.2751,0.0046,0.0144,0.0672,0.0055,0.0371,0.4157,0.5843,2,2,0.2832,NULL
113111,927200,9272,Crafton Hills College,Yucaipa,CA,92339-1799,34.039178,-117.101173,Western Association of Schools and Colleges Accrediting Commission for Community and Junior Colleges,30905.91,30100,29824,NULL,17587,0.3239,0.0364,0.4994,0.0652,0.0025,0.0025,0.055,0.0009,0.0142,0.4323,0.5677,2,2,0.3159,NULL
113193,119200,1192,Cuesta College,San Luis Obispo,CA,93403-8106,35.331276,-120.742235,Western Association of Schools and Colleges Accrediting Commission for Community and Junior Colleges,34270.94,33200,34686,NULL,11063,0.524,0.0365,0.3153,0.0339,0.004,0.0029,0.0552,0.0032,0.025,0.4685,0.5315,2,2,0.3821,NULL
113218,2111300,21113,Cuyamaca College,El Cajon,CA,92019,32.744954,-116.943507,Western Association of Schools and Colleges Accrediting Commission for Community and Junior Colleges,27815.79,26500,26496,NULL,5256,0.492,0.0458,0.3164,0.0516,0.0058,0.0045,0.0534,0.0038,0.0266,0.4197,0.5803,2,2,0.3103,NULL
113236,119300,1193,Cypress College,Cypress,CA,90630-5897,33.82833,-118.025143,Western Association of Schools and Colleges Accrediting Commission for Community and Junior Colleges,30746.71,31400,32944,NULL,6152,0.1465,0.0378,0.5001,0.2323,0.0019,0.004,0.0449,0.0101,0.0224,0.4118,0.5882,1,3,NULL,0.304
113333,448000,4480,De Anza College,Cupertino,CA,95014,37.319914,-122.045783,Western Association of Schools and Colleges Accrediting Commission for Community and Junior Colleges,31190.45,37100,40876,NULL,5394,0.1744,0.0275,0.2752,0.3786,0.0014,0.0053,0.052,0.0787,0.007,0.4881,0.5119,2,2,0.6508,NULL
113449,3964400,39644,International School of Beauty Inc,Palm Desert,CA,92260-2740,33.729555,-116.403928,National Accrediting Commission of Career Arts and Sciences,19937.5,21400,18434,NULL,10111,0.2927,0.0366,0.5793,0.061,0.0061,0,0.0122,0,0.0122,0.2317,0.7683,3,1,0.8023,NULL
113537,3025600,30256,Dell'Arte International School of Physical Theatre,Blue Lake,CA,95525-0816,40.880924,-123.988808,National Association of Schools of Theatre,82166.67,PrivacySuppressed,NULL,NULL,22059,0,0,0,0,0,0,0,0,0,0,0,1,4,NULL,NULL
113573,118200,1182,College of the Desert,Palm Desert,CA,92260,33.732108,-116.388271,Western Association of Schools and Colleges Accrediting Commission for Community and Junior Colleges,29201.75,28400,30002,NULL,12571,0.156,0.0239,0.7384,0.0299,0.0034,0.0007,0.0297,0.0084,0.0096,0.3951,0.6049,2,2,0.2555,NULL
113582,2298000,22980,Design Institute of San Diego,San Diego,CA,92121,32.880926,-117.167374,Western Association of Schools and Colleges Senior Colleges and University Commission,89125,33700,42824,1,40842,0.4758,0.0726,0.25,0.0806,0.0323,0.0081,0.0161,0.0403,0.0242,0.0887,0.9113,1,3,NULL,0.3333
113634,119100,1191,Diablo Valley College,Pleasant Hill,CA,94523,37.968516,-122.073142,Western Association of Schools and Colleges Accrediting Commission for Community and Junior Colleges,28428.35,33700,38509,NULL,6678,0.3064,0.0486,0.2717,0.1684,0.0014,0.0041,0.0812,0.029,0.0892,0.4703,0.5297,2,2,0.4785,NULL
113698,119600,1196,Dominican University of California,San Rafael,CA,94901-2298,37.981279,-122.512051,Western Association of Schools and Colleges Senior Colleges and University Commission,75941.01,54200,63540,0.8574,33963,0.2729,0.0495,0.2802,0.2977,0.0015,0.0051,0.0539,0.0182,0.0211,0.3384,0.6616,1,4,NULL,0.7433
113704,129600,1296,Dominican School of Philosophy & Theology,Berkeley,CA,94708-1816,37.881099,-122.264612,Western Association of Schools and Colleges Senior Colleges and University Commission,0,NULL,NULL,NULL,0,NULL,NULL,NULL,NULL,NULL,NULL,NULL,NULL,NULL,NULL,NULL,1,4,NULL,NULL
113856,2226000,22260,East Los Angeles College,Monterey Park,CA,91754-6099,34.040531,-118.148785,Western Association of Schools and Colleges Accrediting Commission for Community and Junior Colleges,26089.02,26800,31668,NULL,11028,0.0895,0.0567,0.6411,0.0835,0.002,0.0018,0.0078,0.0101,0.1076,0.48,0.52,2,2,0.3274,NULL
113980,119700,1197,El Camino Community College District,Torrance,CA,90506,33.885229,-118.329913,Western Association of Schools and Colleges Accrediting Commission for Community and Junior Colleges,30251.88,26800,31801,NULL,11095,0.1046,0.1314,0.4326,0.1096,0.0022,0.0043,0.0283,0.0194,0.1677,0.4439,0.5561,2,2,0.3663,NULL
114114,2609000,26090,Emperor's College of Traditional Oriental Medicine,Santa Monica,CA,90403,34.030438,-118.485119,Accrediting Commission for Acupuncture and Oriental Medicine,0,NULL,NULL,NULL,0,NULL,NULL,NULL,NULL,NULL,NULL,NULL,NULL,NULL,NULL,NULL,1,4,NULL,NULL
114123,903200,9032,Empire College,Santa Rosa,CA,95403-2126,38.468052,-122.729337,Accrediting Council for Independent Colleges and Schools,41189.19,29600,34896,NULL,22453,0.3554,0.0181,0.4639,0.0181,0.0241,0.0301,0.006,0,0.0843,0.247,0.753,1,4,NULL,0.5906
114266,1245200,12452,Evergreen Valley College,San Jose,CA,95135-1598,37.30167,-121.76561,Western Association of Schools and Colleges Accrediting Commission for Community and Junior Colleges,29561.22,30400,38103,NULL,10708,0.0659,0.0224,0.4495,0.3885,0.0024,0.0041,0.0311,0.0097,0.0265,0.4184,0.5816,2,2,0.2962,NULL
114354,1111200,11112,FIDM-Fashion Institute of Design & Merchandising-Los Angeles,Los Angeles,CA,90015-1421,34.044209,-118.25993,Western Association of Schools and Colleges Senior Colleges and University Commission,58098.84,37300,39776,0.382,40793,0.3259,0.085,0.2301,0.1132,0.0108,0.0119,0.006,0.163,0.0541,0.1733,0.8267,1,4,NULL,0.725
114390,1111202,11112,FIDM-Fashion Institute of Design & Merchandising-San Francisco,San Francisco,CA,94108-5805,37.786353,-122.406651,NULL,59250,37300,39776,0.382,37442,0.2743,0.0796,0.2478,0.2389,0,0.0531,0.0088,0.0531,0.0442,0.1947,0.8053,1,3,NULL,0.6852
114433,859700,8597,Feather River Community College District,Quincy,CA,95971-9124,39.953101,-120.973067,Western Association of Schools and Colleges Accrediting Commission for Community and Junior Colleges,35083.33,25400,28983,NULL,10061,0.4493,0.1577,0.2472,0.0426,0.0307,0.0162,0.0034,0.0017,0.0512,0.6223,0.3777,1,3,NULL,0.295
114460,725300,7253,Federico Beauty Institute,Sacramento,CA,95834,38.64883,-121.497761,National Accrediting Commission of Career Arts and Sciences,43595.24,28100,24451,NULL,17219,0.3597,0.1089,0.3696,0.0957,0.0099,0,0.0528,0,0.0033,0.0858,0.9142,3,1,0.8,NULL
114549,2096100,20961,Fielding Graduate University,Santa Barbara,CA,93105-3538,34.42941,-119.717161,Western Association of Schools and Colleges Senior Colleges and University Commission,0,NULL,NULL,NULL,0,NULL,NULL,NULL,NULL,NULL,NULL,NULL,NULL,NULL,NULL,NULL,1,4,NULL,NULL
114585,3131300,31313,Five Branches University,Santa Cruz,CA,95062,36.964348,-121.998245,Accrediting Commission for Acupuncture and Oriental Medicine,0,PrivacySuppressed,NULL,NULL,0,NULL,NULL,NULL,NULL,NULL,NULL,NULL,NULL,NULL,NULL,NULL,1,4,NULL,NULL
114637,720900,7209,Redondo Beach Beauty College,Torrance,CA,90505,33.873098,-118.372137,National Accrediting Commission of Career Arts and Sciences,0,NULL,NULL,NULL,0,0.1343,0.1045,0.1791,0.5522,0,0,0,0,0.0299,0.1343,0.8657,3,1,0.9231,NULL
114716,119900,1199,Foothill College,Los Altos Hills,CA,94022,37.361655,-122.127964,Western Association of Schools and Colleges Accrediting Commission for Community and Junior Colleges,29220.51,44000,45865,NULL,6200,0.3015,0.0309,0.299,0.2435,0.0022,0.0098,0.0553,0.0431,0.0146,0.5109,0.4891,1,3,NULL,0.5899
114734,1179200,11792,Franciscan School of Theology,San Diego,CA,92110,32.770816,-117.192073,Western Association of Schools and Colleges Senior Colleges and University Commission,0,NULL,NULL,NULL,0,NULL,NULL,NULL,NULL,NULL,NULL,NULL,NULL,NULL,NULL,NULL,1,4,NULL,NULL
114761,2230900,22309,Fredrick and Charles Beauty College,Eureka,CA,95501,40.798885,-124.164986,National Accrediting Commission of Career Arts and Sciences,25071.43,PrivacySuppressed,25136,NULL,15911,0.6226,0.0189,0.0189,0.0943,0.1887,0.0377,0.0189,0,0,0.1698,0.8302,3,1,0.8571,NULL
114789,130700,1307,Fresno City College,Fresno,CA,93741,36.768164,-119.796096,Western Association of Schools and Colleges Accrediting Commission for Community and Junior Colleges,15524.19,25100,26535,NULL,2584,0.1967,0.0449,0.5872,0.123,0.0051,0.0021,0.0299,0.0002,0.0109,0.4295,0.5705,2,2,0.2338,NULL
114813,125300,1253,Fresno Pacific University,Fresno,CA,93702-4709,36.726831,-119.735199,Western Association of Schools and Colleges Senior Colleges and University Commission,53468,38400,42603,0.6694,19029,0.2416,0.0542,0.5869,0.0446,0.0077,0.0022,0.0041,0.0144,0.0443,0.2737,0.7263,1,4,NULL,0.6736
114840,120000,1200,Fuller Theological Seminary,Pasadena,CA,91182,34.14778,-118.140261,Western Association of Schools and Colleges Senior Colleges and University Commission,0,PrivacySuppressed,NULL,NULL,0,NULL,NULL,NULL,NULL,NULL,NULL,NULL,NULL,NULL,NULL,NULL,1,4,NULL,NULL
114859,120100,1201,Fullerton College,Fullerton,CA,92832-2095,33.875514,-117.918255,Western Association of Schools and Colleges Accrediting Commission for Community and Junior Colleges,30833.33,28900,32900,NULL,7721,0.1644,0.0277,0.5878,0.1399,0.0018,0.002,0.0429,0.008,0.0254,0.4515,0.5485,2,2,0.3283,NULL
114938,120200,1202,Gavilan College,Gilroy,CA,95020,36.972627,-121.569842,Western Association of Schools and Colleges Accrediting Commission for Community and Junior Colleges,32866.8,27900,34017,NULL,5634,0.246,0.019,0.6098,0.0603,0.0029,0.0031,0.0403,0.0003,0.0184,0.4531,0.5469,2,2,0.3623,NULL
114947,2231900,22319,Gemological Institute of America-Carlsbad,Carlsbad,CA,92008,33.131313,-117.318765,Accrediting Commission of Career Schools and Colleges,39115.38,39700,37355,NULL,31885,0.5172,0,0.1034,0.1379,0.0345,0,0.0345,0,0.1724,0.4828,0.5172,3,1,0.8583,NULL
115001,120300,1203,Glendale Community College,Glendale,CA,91208-2894,34.16745,-118.227666,Western Association of Schools and Colleges Accrediting Commission for Community and Junior Colleges,24399.26,28600,31011,NULL,4191,0.4991,0.0252,0.2963,0.0817,0.0009,0.0015,0.0311,0.032,0.0323,0.4299,0.5701,2,2,0.315,NULL
115010,2338500,23385,Glendale Career College,Glendale,CA,91203,34.149771,-118.254719,Accrediting Bureau of Health Education Schools,25252.53,31700,32855,NULL,38188,0.2089,0.0427,0.4636,0.1756,0.0063,0.0095,0.0839,0.0032,0.0063,0.2595,0.7405,1,2,NULL,0.6609
115083,120500,1205,Golden Gate University,San Francisco,CA,94105-2968,37.789374,-122.398969,Western Association of Schools and Colleges Senior Colleges and University Commission,0,72900,75134,NULL,0,0.3174,0.1843,0.2287,0.1297,0.0171,0.0137,0.0051,0,0.1041,0.6809,0.3191,1,4,NULL,NULL
115126,120600,1206,Golden West College,Huntington Beach,CA,92647-2710,33.732531,-118.002568,Western Association of Schools and Colleges Accrediting Commission for Community and Junior Colleges,29186.19,29400,33608,NULL,4024,0.2655,0.0194,0.3406,0.2773,0.0018,0.0045,0.0499,0.0279,0.0131,0.4155,0.5845,2,2,0.4128,NULL
115214,120700,1207,Graduate Theological Union,Berkeley,CA,94709,37.87554,-122.261847,Commission on Accrediting of the Association of Theological Schools,0,NULL,NULL,NULL,0,NULL,NULL,NULL,NULL,NULL,NULL,NULL,NULL,NULL,NULL,NULL,1,4,NULL,NULL
115296,120800,1208,Grossmont College,El Cajon,CA,92020-1799,32.815246,-117.006277,Western Association of Schools and Colleges Accrediting Commission for Community and Junior Colleges,34835.23,29000,29762,NULL,4653,0.3921,0.0504,0.3675,0.0698,0.0033,0.0038,0.0604,0.0236,0.029,0.3931,0.6069,2,2,0.3125,NULL
115357,2211000,22110,Salon Success Academy-Riverside,Riverside,CA,92506,33.943149,-117.391024,National Accrediting Commission of Career Arts and Sciences,36525,17900,21399,NULL,12800,0.104,0.104,0.736,0.04,0,0,0,0,0.016,0.192,0.808,3,1,0.6923,NULL
115393,120900,1209,Hartnell College,Salinas,CA,93901,36.675091,-121.666054,Western Association of Schools and Colleges Accrediting Commission for Community and Junior Colleges,34012.97,28000,32992,NULL,5680,0.0702,0.0218,0.7181,0.043,0.0036,0.0017,0.017,0.0005,0.124,0.4392,0.5608,2,2,0.287,NULL
115409,117100,1171,Harvey Mudd College,Claremont,CA,91711,34.106515,-117.709837,Western Association of Schools and Colleges Senior Colleges and University Commission,77547.87,87200,112059,0.1796,33467,0.2769,0.0411,0.2031,0.2297,0.0024,0.0036,0.1028,0.0738,0.0665,0.5018,0.4982,1,3,NULL,0.9271
115658,2285100,22851,Hilltop Beauty School,Daly City,CA,94014,37.705502,-122.461467,National Accrediting Commission of Career Arts and Sciences,29000,23700,23369,NULL,15860,0.0288,0.0288,0.625,0.25,0.0192,0,0.0096,0,0.0385,0.125,0.875,3,1,0.625,NULL
115728,118300,1183,Holy Names University,Oakland,CA,94619-1699,37.802276,-122.187804,Western Association of Schools and Colleges Senior Colleges and University Commission,53768.66,49000,56544,0.8912,22527,0.1522,0.1693,0.377,0.0996,0.0043,0.01,0.0555,0.0299,0.1024,0.3385,0.6615,1,4,NULL,0.3864
115746,3126800,31268,Pacifica Graduate Institute,Carpinteria,CA,93013,34.420881,-119.580414,Western Association of Schools and Colleges Senior Colleges and University Commission,0,NULL,NULL,NULL,0,NULL,NULL,NULL,NULL,NULL,NULL,NULL,NULL,NULL,NULL,NULL,1,4,NULL,NULL
115755,114900,1149,California State Polytechnic University-Humboldt,Arcata,CA,95521-8299,40.877481,-124.078293,Western Association of Schools and Colleges Senior Colleges and University Commission,47335.58,30200,34180,0.8514,14956,0.4417,0.0364,0.3427,0.0292,0.0134,0.003,0.0641,0.0129,0.0568,0.4163,0.5837,1,4,NULL,0.4949
115773,121200,1212,Humphreys University-Stockton and Modesto Campuses,Stockton,CA,95207-3896,38.011489,-121.316918,Western Association of Schools and Colleges Senior Colleges and University Commission,54083.33,29500,31020,NULL,12075,0.2168,0.0752,0.3363,0.0885,0,0.031,0.0221,0.1062,0.1239,0.2301,0.7699,1,4,NULL,0.5667
115861,121400,1214,Imperial Valley College,Imperial,CA,92251-0158,32.827209,-115.503563,Western Association of Schools and Colleges Accrediting Commission for Community and Junior Colleges,26926.47,22600,24718,NULL,2205,0.0398,0.0128,0.9113,0.0076,0.0006,0.0005,0.0062,0.0002,0.021,0.4079,0.5921,2,2,0.3685,NULL
115931,2128300,21283,Institute for Business and Technology,Santa Clara,CA,95051-1303,37.368642,-121.969541,Accrediting Commission of Career Schools and Colleges,43043.48,31100,34221,NULL,26881,0.1209,0.0587,0.5648,0.1019,0.0017,0.0173,0.0086,0,0.1261,0.7237,0.2763,2,2,0.7909,NULL
116226,2520300,25203,Interior Designers Institute,Newport Beach,CA,92660,33.641393,-117.865722,Accrediting Commission of Career Schools and Colleges,0,40000,46708,NULL,0,0.5683,0.0288,0.1439,0.1367,0,0,0.1007,0.0216,0,0.0288,0.9712,1,4,NULL,0.5
116350,2255400,22554,International School of Cosmetology,Los Angeles,CA,90036,34.080053,-118.361176,National Accrediting Commission of Career Arts and Sciences,29851.35,24500,22196,NULL,21379,0.3741,0.0935,0.3094,0.1295,0.0288,0.0072,0.0216,0,0.036,0.1511,0.8489,3,1,0.6481,NULL
116439,2539500,25395,Irvine Valley College,Irvine,CA,92618-0301,33.675381,-117.777539,Western Association of Schools and Colleges Accrediting Commission for Community and Junior Colleges,30620.09,33600,34044,NULL,3097,0.3128,0.0199,0.2323,0.2802,0.0013,0.0026,0.0544,0.0592,0.0373,0.4924,0.5076,2,2,0.5144,NULL
116563,1202600,12026,Bellus Academy-El Cajon,El Cajon,CA,92021,32.794072,-116.94627,National Accrediting Commission of Career Arts and Sciences,20812.5,20300,22941,NULL,24694,0.2935,0.1522,0.375,0.0598,0.0109,0.0054,0.0924,0,0.0109,0.0326,0.9674,2,1,0.7647,NULL
116846,274100,2741,American Jewish University,Los Angeles,CA,90077-1519,34.128153,-118.471706,Western Association of Schools and Colleges Senior Colleges and University Commission,0,PrivacySuppressed,NULL,NULL,0,0.6486,0,0.027,0.027,0,0,0,0,0.2973,0.1892,0.8108,1,4,NULL,0.3333
117052,130800,1308,Reedley College,Reedley,CA,93654,36.605428,-119.458555,Western Association of Schools and Colleges Accrediting Commission for Community and Junior Colleges,15598.28,24000,27081,NULL,4892,0.1652,0.0225,0.7354,0.0452,0.0032,0.0011,0.0195,0.0004,0.0076,0.4042,0.5958,2,2,0.2821,NULL
117104,2270600,22706,Life Pacific University,San Dimas,CA,91773-3298,34.098705,-117.829388,Western Association of Schools and Colleges Senior Colleges and University Commission,62080.65,32800,32294,0.931,20583,0.3737,0.039,0.4209,0.0329,0.0123,0.0062,0.0575,0.0062,0.0513,0.4353,0.5647,1,4,NULL,0.4896
117140,121600,1216,University of La Verne,La Verne,CA,91750-4401,34.100855,-117.773262,Western Association of Schools and Colleges Senior Colleges and University Commission,15060.76,45800,48057,0.7625,28260,0.1846,0.0665,0.5838,0.0493,0.0046,0.0051,0.0374,0.0328,0.0359,0.3973,0.6027,1,4,NULL,0.6607
117168,2330500,23305,Laguna College of Art and Design,Laguna Beach,CA,92651,33.561448,-117.772564,Western Association of Schools and Colleges Senior Colleges and University Commission,61355.26,32200,34650,0.8292,35944,0.4809,0.0219,0.2145,0.153,0.0041,0.0055,0.071,0.0437,0.0055,0.2787,0.7213,1,4,NULL,0.6716
117195,1290700,12907,Lake Tahoe Community College,South Lake Tahoe,CA,96150,38.926797,-119.972574,Western Association of Schools and Colleges Accrediting Commission for Community and Junior Colleges,30379.31,25900,28148,NULL,4853,0.4184,0.0689,0.3245,0.0792,0.0098,0.0054,0.0464,0.0078,0.0396,0.5684,0.4316,2,2,0.3478,NULL
117238,1301000,13010,Lancaster Beauty School,Lancaster,CA,93534,34.694914,-118.147547,National Accrediting Commission of Career Arts and Sciences,27500,15100,17637,NULL,12910,0,0,0,0,0,0,0,0,0,0,0,3,1,0.7612,NULL
117247,126600,1266,Laney College,Oakland,CA,94607,37.797257,-122.26283,Western Association of Schools and Colleges Accrediting Commission for Community and Junior Colleges,24133.12,25900,29727,NULL,12828,0.1707,0.1821,0.2327,0.2503,0.002,0.0061,0.0664,0.0522,0.0375,0.4444,0.5556,2,2,0.2453,NULL
117274,121700,1217,Lassen Community College,Susanville,CA,96130,40.432053,-120.633271,Western Association of Schools and Colleges Accrediting Commission for Community and Junior Colleges,41183.67,25300,29234,NULL,9945,0.3817,0.1612,0.3002,0.0482,0.0235,0.0099,0.0445,0.0043,0.0266,0.7671,0.2329,2,2,0.3155,NULL
117283,4284300,42843,Latin American Bible Institute,La Puente,CA,91746-3099,34.030992,-117.989601,Association for Bibical Higher Educaiton,0,NULL,NULL,0.7273,0,0,0.0167,0.9667,0,0.0167,0,0,0,0,0.5167,0.4833,1,3,NULL,0.36
117520,2228500,22285,Life Chiropractic College West,Hayward,CA,94545-2800,37.638099,-122.117619,Western Association of Schools and Colleges Senior Colleges and University Commission,0,NULL,NULL,NULL,0,NULL,NULL,NULL,NULL,NULL,NULL,NULL,NULL,NULL,NULL,NULL,1,4,NULL,NULL
117557,697500,6975,Lincoln University,Oakland,CA,94612-2801,37.804788,-122.269745,NULL,0,PrivacySuppressed,51432,NULL,0,0.1364,0.0795,0.0455,0.1705,0,0,0.0114,0.5568,0,0.5114,0.4886,1,4,NULL,0.8
117575,3332300,33323,Southern California Seminary,El Cajon,CA,92019-1108,32.799614,-116.905461,Transnational Association of Christian Colleges and Schools,0,PrivacySuppressed,NULL,NULL,0,0.48,0.14,0.24,0.04,0,0.02,0.08,0,0,0.6,0.4,1,4,NULL,0
117627,121500,1215,La Sierra University,Riverside,CA,92505-8247,33.910704,-117.500054,Western Association of Schools and Colleges Senior Colleges and University Commission,54983.67,43600,40563,0.5697,22909,0.1094,0.0746,0.5055,0.1642,0.0014,0.0082,0.0445,0.0923,0,0.3953,0.6047,1,4,NULL,0.5246
117636,121800,1218,Loma Linda University,Loma Linda,CA,92350,34.051241,-117.260605,Western Association of Schools and Colleges Senior Colleges and University Commission,0,71200,78124,NULL,0,0.2448,0.0503,0.3722,0.2419,0.001,0.0049,0.0484,0.0365,0,0.2527,0.7473,1,4,NULL,NULL
117645,121900,1219,Long Beach City College,Long Beach,CA,90808-1706,33.833593,-118.135633,Western Association of Schools and Colleges Accrediting Commission for Community and Junior Colleges,28171.23,26100,30553,NULL,5323,0.1365,0.1075,0.5959,0.0957,0.0016,0.006,0.0517,0.0032,0.0019,0.4125,0.5875,2,2,0.2137,NULL
117672,122900,1229,Southern California University of Health Sciences,Whittier,CA,90604,33.922966,-117.983401,Western Association of Schools and Colleges Senior Colleges and University Commission,0,PrivacySuppressed,49207,NULL,0,0.2622,0.0793,0.3537,0.1159,0,0.0122,0.0427,0,0.1341,0.1098,0.8902,1,4,NULL,NULL
117690,122400,1224,Los Angeles Harbor College,Wilmington,CA,90744-2397,33.785825,-118.283549,Western Association of Schools and Colleges Accrediting Commission for Community and Junior Colleges,28380.4,30200,31768,NULL,11607,0.1158,0.0916,0.6122,0.0999,0.0012,0.0046,0.0339,0.0058,0.035,0.3848,0.6152,2,2,0.256,NULL
117706,122600,1226,Los Angeles Pierce College,Woodland Hills,CA,91371-0002,34.183949,-118.575071,Western Association of Schools and Colleges Accrediting Commission for Community and Junior Colleges,27961.34,29600,31986,NULL,12002,0.2808,0.0428,0.4948,0.0931,0.001,0.0014,0.0369,0.0084,0.0408,0.4143,0.5857,2,2,0.3143,NULL
117715,704700,7047,Los Angeles Southwest College,Los Angeles,CA,90047-4899,33.929586,-118.304674,Western Association of Schools and Colleges Accrediting Commission for Community and Junior Colleges,23890.55,23300,25325,NULL,9909,0.0576,0.3681,0.4682,0.0322,0.0017,0.0019,0.0271,0.0031,0.0401,0.2723,0.7277,2,2,0.2177,NULL
117724,122700,1227,Los Angeles Trade Technical College,Los Angeles,CA,90015-4181,34.031907,-118.269447,Western Association of Schools and Colleges Accrediting Commission for Community and Junior Colleges,22400.86,25800,28857,NULL,9346,0.0807,0.1374,0.6714,0.0454,0.0019,0.001,0.0233,0.0073,0.0318,0.5096,0.4904,2,2,0.2622,NULL
117733,122800,1228,Los Angeles Valley College,Valley Glen,CA,91401-4096,34.175165,-118.421734,Western Association of Schools and Colleges Accrediting Commission for Community and Junior Colleges,24893.84,30600,30309,NULL,10194,0.2915,0.0499,0.5089,0.07,0.0016,0.0018,0.0287,0.0048,0.0429,0.4039,0.5961,2,2,0.2563,NULL
117751,122000,1220,The Master's University and Seminary,Santa Clarita,CA,91321-1200,34.381755,-118.518193,Western Association of Schools and Colleges Senior Colleges and University Commission,76854.48,38600,42489,0.5988,30238,0.6761,0.011,0.0138,0.0483,0.0055,0.0007,0.0994,0.0048,0.1402,0.5387,0.4613,1,4,NULL,0.6392
117788,122300,1223,Los Angeles City College,Los Angeles,CA,90029,34.087301,-118.292169,Western Association of Schools and Colleges Accrediting Commission for Community and Junior Colleges,22628.27,25600,28103,NULL,9768,0.2001,0.0763,0.5143,0.1199,0.0018,0.0013,0.0271,0.0184,0.0408,0.4024,0.5976,2,2,0.2545,NULL
117803,616500,6165,Los Angeles County College of Nursing and Allied Health,Los Angeles,CA,90033-1084,34.062647,-118.211852,Western Association of Schools and Colleges Accrediting Commission for Community and Junior Colleges,0,69100,90621,NULL,0,0.175,0.055,0.45,0.285,0.01,0,0.02,0,0.005,0.325,0.675,2,2,NULL,NULL
117867,1255000,12550,Los Angeles Mission College,Sylmar,CA,91342-3200,34.314668,-118.4195,Western Association of Schools and Colleges Accrediting Commission for Community and Junior Colleges,28456.11,27700,31253,NULL,12210,0.1181,0.0342,0.7352,0.0557,0.0027,0.001,0.0146,0.0051,0.0334,0.3585,0.6415,2,2,0.2156,NULL
117894,1034000,10340,Los Medanos College,Pittsburg,CA,94565,38.006474,-121.860967,Western Association of Schools and Colleges Accrediting Commission for Community and Junior Colleges,27587.16,30300,34182,NULL,6154,0.2019,0.1122,0.4313,0.1091,0.0019,0.0064,0.0708,0.0028,0.0636,0.3952,0.6048,2,2,0.382,NULL
117946,1164900,11649,Loyola Marymount University,Los Angeles,CA,90045-2659,33.97085,-118.415744,Western Association of Schools and Colleges Senior Colleges and University Commission,86148.24,53000,56826,0.5014,44467,0.4324,0.0684,0.2275,0.0977,0.0005,0.0012,0.0728,0.0996,0,0.4599,0.5401,1,4,NULL,0.8262
117955,1186600,11866,Lu Ross Academy,Ventura,CA,93001-2729,34.278034,-119.293952,National Accrediting Commission of Career Arts and Sciences,40695.65,PrivacySuppressed,19780,NULL,14663,0.2158,0.0316,0.7263,0.0053,0,0.0053,0,0.0105,0.0053,0.1947,0.8053,3,1,0.593,NULL
118134,714201,7142,Lyle's College of Beauty,Bakersfield,CA,93301,35.386539,-119.02387,National Accrediting Commission of Career Arts and Sciences,29545.45,NULL,NULL,NULL,15262,0.2391,0.0217,0.6848,0.0109,0,0,0,0.0109,0.0326,0,1,3,1,0.8261,NULL
118143,714200,7142,Lyle's College of  Beauty,Fresno,CA,93710,36.836265,-119.774167,National Accrediting Commission of Career Arts and Sciences,15000,17700,17149,NULL,22867,0.2644,0.1034,0.4713,0.092,0.023,0.0115,0.0115,0.023,0,0.0575,0.9425,3,1,0.75,NULL
118161,1324000,13240,Lytles Redwood Empire Beauty College,Santa Rosa,CA,95403,38.508385,-122.75777,National Accrediting Commission of Career Arts and Sciences,15000,26700,27885,NULL,14922,0.6203,0.0253,0.2785,0.0127,0.0506,0,0.0127,0,0,0.038,0.962,3,1,0.9024,NULL
118198,1291200,12912,MTI College,Sacramento,CA,95841-9817,38.661377,-121.342568,Western Association of Schools and Colleges Accrediting Commission for Community and Junior Colleges,27529.41,28000,34189,0.8023,18598,0.4155,0.1344,0.2668,0.1079,0.0081,0.0102,0.055,0,0.002,0.2363,0.7637,2,2,0.7288,NULL
118347,117800,1178,College of Marin,Kentfield,CA,94904-2590,37.954897,-122.549149,Western Association of Schools and Colleges Accrediting Commission for Community and Junior Colleges,29597.56,32600,32063,NULL,8804,0.477,0.0351,0.3097,0.074,0.0021,0.0032,0.0583,0.015,0.0256,0.3724,0.6276,2,2,0.304,NULL
118541,1047400,10474,Marymount California University,Rancho Palos Verdes,CA,90275-6299,33.734887,-118.333371,Western Association of Schools and Colleges Senior Colleges and University Commission,52087.84,34300,36115,NULL,28273,0.2117,0.0835,0.4641,0.0621,0,0.0058,0.0757,0.0835,0.0136,0.4738,0.5262,1,4,NULL,0.3173
118684,1167200,11672,Mendocino College,Ukiah,CA,95482,39.188989,-123.228809,Western Association of Schools and Colleges Accrediting Commission for Community and Junior Colleges,26806.45,27100,28252,NULL,9112,0.4695,0.0138,0.3792,0.0464,0.0401,0.0008,0.0234,0.0008,0.0259,0.3135,0.6865,2,2,0.194,NULL
118693,123600,1236,Menlo College,Atherton,CA,94027-4301,37.453475,-122.190797,Western Association of Schools and Colleges Senior Colleges and University Commission,54182.43,42500,54374,0.6451,27840,0.2085,0.0582,0.2861,0.0836,0.0061,0.0352,0.0752,0.2073,0.04,0.5358,0.4642,1,3,NULL,0.5355
118718,123700,1237,Merced College,Merced,CA,95348-2806,37.3353,-120.476464,Western Association of Schools and Colleges Accrediting Commission for Community and Junior Colleges,29469.52,23900,27445,NULL,11522,0.1665,0.0324,0.5957,0.0808,0.0048,0.002,0.0276,0.0059,0.0842,0.3725,0.6275,2,2,0.3026,NULL
118772,126700,1267,Merritt College,Oakland,CA,94619-3196,37.789088,-122.167335,Western Association of Schools and Colleges Accrediting Commission for Community and Junior Colleges,27620,31000,34345,NULL,12849,0.1858,0.2109,0.2894,0.1779,0.002,0.0043,0.0592,0.0252,0.0452,0.3124,0.6876,2,2,0.2123,NULL
118888,123800,1238,Mills College,Oakland,CA,94613,37.781425,-122.182294,Western Association of Schools and Colleges Senior Colleges and University Commission,57093.41,40200,47240,0.9114,24949,0.3367,0.1161,0.3466,0.0813,0.005,0,0.1061,0.005,0.0033,0.0033,0.9967,1,4,NULL,0.6524
118912,123900,1239,MiraCosta College,Oceanside,CA,92056-3899,33.190483,-117.302606,Western Association of Schools and Colleges Accrediting Commission for Community and Junior Colleges,29699.6,28400,33202,NULL,3995,0.3895,0.0326,0.3863,0.0681,0.0039,0.0059,0.0712,0.0123,0.0302,0.3904,0.6096,1,3,NULL,0.3553
118930,2119100,21191,Mission College,Santa Clara,CA,95054-1897,37.391935,-121.980783,Western Association of Schools and Colleges Accrediting Commission for Community and Junior Colleges,29633.33,33900,39934,NULL,3691,0.1574,0.033,0.3156,0.3991,0.0013,0.0047,0.0528,0.0221,0.014,0.429,0.571,2,2,0.4436,NULL
118958,720400,7204,Modern Beauty Academy,Oxnard,CA,93030,34.195384,-119.181423,National Accrediting Commission of Career Arts and Sciences,29100,19800,20250,NULL,15198,0.0278,0.0833,0.7222,0,0,0.0278,0,0.1389,0,0.4444,0.5556,3,1,0.6667,NULL
118976,124000,1240,Modesto Junior College,Modesto,CA,95350-5800,37.651056,-121.009792,Western Association of Schools and Colleges Accrediting Commission for Community and Junior Colleges,30796.78,27200,30973,NULL,11267,0.3373,0.0307,0.5392,0.061,0.006,0.0129,0.0005,0.0013,0.0111,0.3714,0.6286,1,3,NULL,0.2016
118994,2185800,21858,Moler Barber College,Oakland,CA,94609-2419,37.827075,-122.265352,Accrediting Commission of Career Schools and Colleges,15000,PrivacySuppressed,24294,NULL,18776,0.0486,0.2708,0.2431,0.0174,0,0.0104,0.0521,0.0035,0.3542,0.5972,0.4028,3,1,0.5833,NULL
119058,369110,3691,Middlebury Institute of International Studies at Monterey,Monterey,CA,93940,36.599736,-121.897325,New England Commission on Higher Education,0,47900,47424,0.2204,0,0.6923,0,0,0.0769,0,0,0.1538,0.0769,0,0.4615,0.5385,1,4,NULL,NULL
119067,124200,1242,Monterey Peninsula College,Monterey,CA,93940-4799,36.590558,-121.884931,Western Association of Schools and Colleges Accrediting Commission for Community and Junior Colleges,29686,28700,31967,NULL,11667,0.3059,0.0326,0.472,0.0706,0.0044,0.0077,0.0581,0.0056,0.0431,0.4235,0.5765,2,2,0.3035,NULL
